,results,status
0,"[{'address_components': [{'long_name': '94', 'short_name': '94', 'types': ['street_number']}, {'long_name': 'Section 2, Heping East Road', 'short_name': 'Section 2, Heping E Rd', 'types': ['route']}, {'long_name': '龍淵里', 'short_name': '龍淵里', 'types': ['administrative_area_level_4', 'political']}, {'long_name': 'Da’an District', 'short_name': 'Da’an District', 'types': ['administrative_area_level_3', 'political']}, {'long_name': 'Taipei City', 'short_name': 'Taipei City', 'types': ['administrative_area_level_1', 'political']}, {'long_name': 'Taiwan', 'short_name': 'TW', 'types': ['country', 'political']}, {'long_name': '106', 'short_name': '106', 'types': ['postal_code']}], 'formatted_address': 'No. 94, Section 2, Heping E Rd, Da’an District, Taipei City, Taiwan 106', 'geometry': {'bounds': {'northeast': {'lat': 25.0249012, 'lng': 121.5412146}, 'southwest': {'lat': 25.0246752, 'lng': 121.5404544}}, 'location': {'lat': 25.0247436, 'lng': 121.5411483}, 'location_type': 'ROOFTOP', 'viewport': {'northeast': {'lat': 25.0261371802915, 'lng': 121.5421834802915}, 'southwest': {'lat': 25.0234392197085, 'lng': 121.5394855197085}}}, 'place_id': 'ChIJnXsfESmqQjQR0I5KpwbhUn0', 'types': ['premise']}]",OK
1,"[{'address_components': [{'long_name': '12', 'short_name': '12', 'types': ['street_number']}, {'long_name': 'Section 3, Zhinan Road', 'short_name': 'Section 3, Zhinan Rd', 'types': ['route']}, {'long_name': 'Muzha', 'short_name': 'Muzha', 'types': ['neighborhood', 'political']}, {'long_name': '指南里', 'short_name': '指南里', 'types': ['administrative_area_level_4', 'political']}, {'long_name': 'Wenshan District', 'short_name': 'Wenshan District', 'types': ['administrative_area_level_3', 'political']}, {'long_name': 'Taipei City', 'short_name': 'Taipei City', 'types': ['administrative_area_level_1', 'political']}, {'long_name': 'Taiwan', 'short_name': 'TW', 'types': ['country', 'political']}, {'long_name': '116', 'short_name': '116', 'types': ['postal_code']}], 'formatted_address': 'No. 12, Section 3, Zhinan Rd, Wenshan District, Taipei City, Taiwan 116', 'geometry': {'location': {'lat': 24.9846168, 'lng': 121.5798462}, 'location_type': 'ROOFTOP', 'viewport': {'northeast': {'lat': 24.9859657802915, 'lng': 121.5811951802915}, 'southwest': {'lat': 24.9832678197085, 'lng': 121.5784972197085}}}, 'place_id': 'ChIJg0HcYn6qQjQR-xO7MBMEh9E', 'plus_code': {'compound_code': 'XHMH+RW Wenshan District, Taipei City, Taiwan', 'global_code': '7QP3XHMH+RW'}, 'types': ['street_address']}]",OK
2,"[{'address_components': [{'long_name': '177號', 'short_name': '177號', 'types': ['street_number']}, {'long_name': 'Section 2, Neihu Road', 'short_name': 'Section 2, Neihu Rd', 'types': ['route']}, {'long_name': '湖濱里', 'short_name': '湖濱里', 'types': ['administrative_area_level_4', 'political']}, {'long_name': 'Neihu District', 'short_name': 'Neihu District', 'types': ['administrative_area_level_3', 'political']}, {'long_name': 'Taipei City', 'short_name': 'Taipei City', 'types': ['administrative_area_level_1', 'political']}, {'long_name': 'Taiwan', 'short_name': 'TW', 'types': ['country', 'political']}, {'long_name': '114', 'short_name': '114', 'types': ['postal_code']}], 'formatted_address': 'No. 177號, Section 2, Neihu Rd, Neihu District, Taipei City, Taiwan 114', 'geometry': {'bounds': {'northeast': {'lat': 25.0826421, 'lng': 121.5871075}, 'southwest': {'lat': 25.0822743, 'lng': 121.5866253}}, 'location': {'lat': 25.0824703, 'lng': 121.5868403}, 'location_type': 'ROOFTOP', 'viewport': {'northeast': {'lat': 25.0838071802915, 'lng': 121.5882153802915}, 'southwest': {'lat': 25.0811092197085, 'lng': 121.5855174197085}}}, 'place_id': 'ChIJE92QDIusQjQRfTXyR_iIQLQ', 'types': ['premise']}]",OK
3,"[{'address_components': [{'long_name': '746', 'short_name': '746', 'types': ['street_number']}, {'long_name': 'Section 4, Bade Road', 'short_name': 'Section 4, Bade Rd', 'types': ['route']}, {'long_name': '慈祐里', 'short_name': '慈祐里', 'types': ['administrative_area_level_4', 'political']}, {'long_name': 'Songshan District', 'short_name': 'Songshan District', 'types': ['administrative_area_level_3', 'political']}, {'long_name': 'Taipei City', 'short_name': 'Taipei City', 'types': ['administrative_area_level_1', 'political']}, {'long_name': 'Taiwan', 'short_name': 'TW', 'types': ['country', 'political']}, {'long_name': '105', 'short_name': '105', 'types': ['postal_code']}], 'formatted_address': 'No. 746, Section 4, Bade Rd, Songshan District, Taipei City, Taiwan 105', 'geometry': {'location': {'lat': 25.0498517, 'lng': 121.5776307}, 'location_type': 'ROOFTOP', 'viewport': {'northeast': {'lat': 25.0512006802915, 'lng': 121.5789796802915}, 'southwest': {'lat': 25.04850271970849, 'lng': 121.5762817197085}}}, 'place_id': 'ChIJvRNJA5yrQjQRQYd0KH_MMyg', 'plus_code': {'compound_code': '2HXH+W3 Songshan District, Taipei City, Taiwan', 'global_code': '7QQ32HXH+W3'}, 'types': ['street_address']}]",OK
4,"[{'address_components': [{'long_name': '5', 'short_name': '5', 'types': ['street_number']}, {'long_name': 'Sanmin Road', 'short_name': 'Sanmin Rd', 'types': ['route']}, {'long_name': '東光里', 'short_name': '東光里', 'types': ['administrative_area_level_4', 'political']}, {'long_name': 'Songshan District', 'short_name': 'Songshan District', 'types': ['administrative_area_level_3', 'political']}, {'long_name': 'Taipei City', 'short_name': 'Taipei City', 'types': ['administrative_area_level_1', 'political']}, {'long_name': 'Taiwan', 'short_name': 'TW', 'types': ['country', 'political']}, {'long_name': '105', 'short_name': '105', 'types': ['postal_code']}], 'formatted_address': 'No. 5, Sanmin Rd, Songshan District, Taipei City, Taiwan 105', 'geometry': {'location': {'lat': 25.0523018, 'lng': 121.5634876}, 'location_type': 'ROOFTOP', 'viewport': {'northeast': {'lat': 25.0536507802915, 'lng': 121.5648365802915}, 'southwest': {'lat': 25.0509528197085, 'lng': 121.5621386197085}}}, 'place_id': 'ChIJ1776bpSrQjQRwId3JV2C22U', 'plus_code': {'compound_code': '3H27+W9 Songshan District, Taipei City, Taiwan', 'global_code': '7QQ33H27+W9'}, 'types': ['street_address']}]",OK
5,"[{'address_components': [{'long_name': '2', 'short_name': '2', 'types': ['street_number']}, {'long_name': 'DunHua North Road', 'short_name': 'DunHua N Rd', 'types': ['route']}, {'long_name': '中正里', 'short_name': '中正里', 'types': ['administrative_area_level_4', 'political']}, {'long_name': 'Songshan District', 'short_name': 'Songshan District', 'types': ['administrative_area_level_3', 'political']}, {'long_name': 'Taipei City', 'short_name': 'Taipei City', 'types': ['administrative_area_level_1', 'political']}, {'long_name': 'Taiwan', 'short_name': 'TW', 'types': ['country', 'political']}, {'long_name': '105', 'short_name': '105', 'types': ['postal_code']}], 'formatted_address': 'No. 2, DunHua N Rd, Songshan District, Taipei City, Taiwan 105', 'geometry': {'bounds': {'northeast': {'lat': 25.0491866, 'lng': 121.5485407}, 'southwest': {'lat': 25.0491618, 'lng': 121.5485156}}, 'location': {'lat': 25.0491723, 'lng': 121.5485239}, 'location_type': 'ROOFTOP', 'viewport': {'northeast': {'lat': 25.05052318029151, 'lng': 121.5498771302915}, 'southwest': {'lat': 25.0478252197085, 'lng': 121.5471791697085}}}, 'place_id': 'ChIJS1fh0sKrQjQREdw8H1zeRmU', 'types': ['premise']}]",OK
6,"[{'address_components': [{'long_name': '號', 'short_name': '號', 'types': ['subpremise']}, {'long_name': '18', 'short_name': '18', 'types': ['street_number']}, {'long_name': 'Lane 55, Section 4, Minsheng East Road', 'short_name': 'Lane 55, Section 4, Minsheng East Road', 'types': ['route']}, {'long_name': '精忠里', 'short_name': '精忠里', 'types': ['administrative_area_level_4', 'political']}, {'long_name': 'Songshan District', 'short_name': 'Songshan District', 'types': ['administrative_area_level_3', 'political']}, {'long_name': 'Taipei City', 'short_name': 'Taipei City', 'types': ['administrative_area_level_1', 'political']}, {'long_name': 'Taiwan', 'short_name': 'TW', 'types': ['country', 'political']}, {'long_name': '105', 'short_name': '105', 'types': ['postal_code']}], 'formatted_address': '105, Taiwan, Taipei City, Songshan District, Lane 55, Section 4, Minsheng East Road, 18號號', 'geometry': {'location': {'lat': 25.058581, 'lng': 121.550402}, 'location_type': 'ROOFTOP', 'viewport': {'northeast': {'lat': 25.0599299802915, 'lng': 121.5517509802915}, 'southwest': {'lat': 25.0572320197085, 'lng': 121.5490530197085}}}, 'place_id': 'ChIJ-7TgCO-rQjQRUb0RXtwSK_Y', 'types': ['subpremise']}]",OK
7,"[{'address_components': [{'long_name': '200', 'short_name': '200', 'types': ['street_number']}, {'long_name': 'Section 4, Minquan East Road', 'short_name': 'Section 4, Minquan E Rd', 'types': ['route']}, {'long_name': '三民里', 'short_name': '三民里', 'types': ['administrative_area_level_4', 'political']}, {'long_name': 'Songshan District', 'short_name': 'Songshan District', 'types': ['administrative_area_level_3', 'political']}, {'long_name': 'Taipei City', 'short_name': 'Taipei City', 'types': ['administrative_area_level_1', 'political']}, {'long_name': 'Taiwan', 'short_name': 'TW', 'types': ['country', 'political']}, {'long_name': '105', 'short_name': '105', 'types': ['postal_code']}], 'formatted_address': 'No. 200, Section 4, Minquan E Rd, Songshan District, Taipei City, Taiwan 105', 'geometry': {'location': {'lat': 25.0625273, 'lng': 121.562343}, 'location_type': 'ROOFTOP', 'viewport': {'northeast': {'lat': 25.06387628029151, 'lng': 121.5636919802915}, 'southwest': {'lat': 25.0611783197085, 'lng': 121.5609940197085}}}, 'place_id': 'ChIJ0TJ684yrQjQR0iXBUAV2zRI', 'plus_code': {'compound_code': '3H76+2W Songshan District, Taipei City, Taiwan', 'global_code': '7QQ33H76+2W'}, 'types': ['street_address']}]",OK
8,"[{'address_components': [{'long_name': '7', 'short_name': '7', 'types': ['street_number']}, {'long_name': 'Lane 97, Section 4, Minsheng East Road', 'short_name': 'Lane 97, Section 4, Minsheng E Rd', 'types': ['route']}, {'long_name': '精忠里', 'short_name': '精忠里', 'types': ['administrative_area_level_4', 'political']}, {'long_name': 'Songshan District', 'short_name': 'Songshan District', 'types': ['administrative_area_level_3', 'political']}, {'long_name': 'Taipei City', 'short_name': 'Taipei City', 'types': ['administrative_area_level_1', 'political']}, {'long_name': 'Taiwan', 'short_name': 'TW', 'types': ['country', 'political']}, {'long_name': '105', 'short_name': '105', 'types': ['postal_code']}], 'formatted_address': 'No. 7, Lane 97, Section 4, Minsheng E Rd, Songshan District, Taipei City, Taiwan 105', 'geometry': {'bounds': {'northeast': {'lat': 25.0598096, 'lng': 121.5518944}, 'southwest': {'lat': 25.0589506, 'lng': 121.5509138}}, 'location': {'lat': 25.0591373, 'lng': 121.5515398}, 'location_type': 'ROOFTOP', 'viewport': {'northeast': {'lat': 25.0607290802915, 'lng': 121.5527530802915}, 'southwest': {'lat': 25.0580311197085, 'lng': 121.5500551197085}}}, 'place_id': 'ChIJO7EaTe6rQjQRkJT8RW9QWvk', 'types': ['premise']}]",OK
9,"[{'address_components': [{'long_name': '1', 'short_name': '1', 'types': ['street_number']}, {'long_name': 'Section 5, Minquan East Road', 'short_name': 'Section 5, Minquan E Rd', 'types': ['route']}, {'long_name': '莊敬里', 'short_name': '莊敬里', 'types': ['administrative_area_level_4', 'political']}, {'long_name': 'Songshan District', 'short_name': 'Songshan District', 'types': ['administrative_area_level_3', 'political']}, {'long_name': 'Taipei City', 'short_name': 'Taipei City', 'types': ['administrative_area_level_1', 'political']}, {'long_name': 'Taiwan', 'short_name': 'TW', 'types': ['country', 'political']}, {'long_name': '105', 'short_name': '105', 'types': ['postal_code']}], 'formatted_address': 'No. 1, Section 5, Minquan E Rd, Songshan District, Taipei City, Taiwan 105', 'geometry': {'location': {'lat': 25.0632144, 'lng': 121.5642545}, 'location_type': 'ROOFTOP', 'viewport': {'northeast': {'lat': 25.0645633802915, 'lng': 121.5656034802915}, 'southwest': {'lat': 25.0618654197085, 'lng': 121.5629055197085}}}, 'place_id': 'ChIJuZZ3C4yrQjQRJ82Y_Bes_HU', 'plus_code': {'compound_code': '3H77+7P Songshan District, Taipei City, Taiwan', 'global_code': '7QQ33H77+7P'}, 'types': ['street_address']}]",OK
10,"[{'address_components': [{'long_name': '168', 'short_name': '168', 'types': ['street_number']}, {'long_name': 'Yanshou Street', 'short_name': 'Yanshou St', 'types': ['route']}, {'long_name': '自強里', 'short_name': '自強里', 'types': ['administrative_area_level_4', 'political']}, {'long_name': 'Songshan District', 'short_name': 'Songshan District', 'types': ['administrative_area_level_3', 'political']}, {'long_name': 'Taipei City', 'short_name': 'Taipei City', 'types': ['administrative_area_level_1', 'political']}, {'long_name': 'Taiwan', 'short_name': 'TW', 'types': ['country', 'political']}, {'long_name': '105', 'short_name': '105', 'types': ['postal_code']}], 'formatted_address': 'No. 168, Yanshou St, Songshan District, Taipei City, Taiwan 105', 'geometry': {'location': {'lat': 25.0566674, 'lng': 121.5627846}, 'location_type': 'ROOFTOP', 'viewport': {'northeast': {'lat': 25.0580163802915, 'lng': 121.5641335802915}, 'southwest': {'lat': 25.0553184197085, 'lng': 121.5614356197085}}}, 'place_id': 'ChIJLzhCWJKrQjQR242gqbTDC4A', 'plus_code': {'compound_code': '3H47+M4 Songshan District, Taipei City, Taiwan', 'global_code': '7QQ33H47+M4'}, 'types': ['street_address']}]",OK
11,"[{'address_components': [{'long_name': '9', 'short_name': '9', 'types': ['street_number']}, {'long_name': 'Lane 83, Section 1, Jilong Road', 'short_name': 'Lane 83, Section 1, Jilong Rd', 'types': ['route']}, {'long_name': '雅祥里', 'short_name': '雅祥里', 'types': ['administrative_area_level_4', 'political']}, {'long_name': 'Xinyi District', 'short_name': 'Xinyi District', 'types': ['administrative_area_level_3', 'political']}, {'long_name': 'Taipei City', 'short_name': 'Taipei City', 'types': ['administrative_area_level_1', 'political']}, {'long_name': 'Taiwan', 'short_name': 'TW', 'types': ['country', 'political']}, {'long_name': '110', 'short_name': '110', 'types': ['postal_code']}], 'formatted_address': 'No. 9, Lane 83, Section 1, Jilong Rd, Xinyi District, Taipei City, Taiwan 110', 'geometry': {'location': {'lat': 25.046751, 'lng': 121.5700216}, 'location_type': 'ROOFTOP', 'viewport': {'northeast': {'lat': 25.0480999802915, 'lng': 121.5713705802915}, 'southwest': {'lat': 25.0454020197085, 'lng': 121.5686726197085}}}, 'place_id': 'ChIJ6Tpa5perQjQRQNTyZtBvrMw', 'plus_code': {'compound_code': '2HWC+P2 Xinyi District, Taipei City, Taiwan', 'global_code': '7QQ32HWC+P2'}, 'types': ['street_address']}]",OK
12,"[{'address_components': [{'long_name': '48', 'short_name': '48', 'types': ['street_number']}, {'long_name': 'Lane 225, Songshan Road', 'short_name': 'Lane 225, Songshan Rd', 'types': ['route']}, {'long_name': '永春里', 'short_name': '永春里', 'types': ['administrative_area_level_4', 'political']}, {'long_name': 'Xinyi District', 'short_name': 'Xinyi District', 'types': ['administrative_area_level_3', 'political']}, {'long_name': 'Taipei City', 'short_name': 'Taipei City', 'types': ['administrative_area_level_1', 'political']}, {'long_name': 'Taiwan', 'short_name': 'TW', 'types': ['country', 'political']}, {'long_name': '110', 'short_name': '110', 'types': ['postal_code']}], 'formatted_address': 'No. 48, Lane 225, Songshan Rd, Xinyi District, Taipei City, Taiwan 110', 'geometry': {'bounds': {'northeast': {'lat': 25.0441413, 'lng': 121.5799808}, 'southwest': {'lat': 25.0436126, 'lng': 121.5785671}}, 'location': {'lat': 25.0438378, 'lng': 121.5791866}, 'location_type': 'ROOFTOP', 'viewport': {'northeast': {'lat': 25.0452259302915, 'lng': 121.5806229302915}, 'southwest': {'lat': 25.0425279697085, 'lng': 121.5779249697085}}}, 'place_id': 'ChIJA1QN16GrQjQRJutQQ8RYo-Y', 'types': ['premise']}]",OK
13,"[{'address_components': [{'long_name': '271', 'short_name': '271', 'types': ['street_number']}, {'long_name': 'Guangfu South Road', 'short_name': 'Guangfu S Rd', 'types': ['route']}, {'long_name': '興隆里', 'short_name': '興隆里', 'types': ['administrative_area_level_4', 'political']}, {'long_name': 'Xinyi District', 'short_name': 'Xinyi District', 'types': ['administrative_area_level_3', 'political']}, {'long_name': 'Taipei City', 'short_name': 'Taipei City', 'types': ['administrative_area_level_1', 'political']}, {'long_name': 'Taiwan', 'short_name': 'TW', 'types': ['country', 'political']}, {'long_name': '110', 'short_name': '110', 'types': ['postal_code']}], 'formatted_address': 'No. 271, Guangfu S Rd, Xinyi District, Taipei City, Taiwan 110', 'geometry': {'location': {'lat': 25.0401672, 'lng': 121.5578608}, 'location_type': 'ROOFTOP', 'viewport': {'northeast': {'lat': 25.0415161802915, 'lng': 121.5592097802915}, 'southwest': {'lat': 25.0388182197085, 'lng': 121.5565118197085}}}, 'place_id': 'ChIJN2Szu8erQjQRbgeGE0EVf-o', 'plus_code': {'compound_code': '2HR5+34 Xinyi District, Taipei City, Taiwan', 'global_code': '7QQ32HR5+34'}, 'types': ['street_address']}]",OK
14,"[{'address_components': [{'long_name': '99-1', 'short_name': '99-1', 'types': ['street_number']}, {'long_name': 'Section 2, Keelung Road', 'short_name': 'Section 2, Keelung Rd', 'types': ['route']}, {'long_name': '嘉興里', 'short_name': '嘉興里', 'types': ['administrative_area_level_4', 'political']}, {'long_name': 'Xinyi District', 'short_name': 'Xinyi District', 'types': ['administrative_area_level_3', 'political']}, {'long_name': 'Taipei City', 'short_name': 'Taipei City', 'types': ['administrative_area_level_1', 'political']}, {'long_name': 'Taiwan', 'short_name': 'TW', 'types': ['country', 'political']}, {'long_name': '110', 'short_name': '110', 'types': ['postal_code']}], 'formatted_address': 'No. 99-1, Section 2, Keelung Rd, Xinyi District, Taipei City, Taiwan 110', 'geometry': {'bounds': {'northeast': {'lat': 25.0297092, 'lng': 121.5579174}, 'southwest': {'lat': 25.0295405, 'lng': 121.5577061}}, 'location': {'lat': 25.0296292, 'lng': 121.5578055}, 'location_type': 'ROOFTOP', 'viewport': {'northeast': {'lat': 25.03097383029151, 'lng': 121.5591607302915}, 'southwest': {'lat': 25.0282758697085, 'lng': 121.5564627697085}}}, 'place_id': 'ChIJ95I778qrQjQRNOPPZ5uzppI', 'types': ['premise']}]",OK
15,"[{'address_components': [{'long_name': '60', 'short_name': '60', 'types': ['street_number']}, {'long_name': 'Songqin Street', 'short_name': 'Songqin St', 'types': ['route']}, {'long_name': '景新里', 'short_name': '景新里', 'types': ['administrative_area_level_4', 'political']}, {'long_name': 'Xinyi District', 'short_name': 'Xinyi District', 'types': ['administrative_area_level_3', 'political']}, {'long_name': 'Taipei City', 'short_name': 'Taipei City', 'types': ['administrative_area_level_1', 'political']}, {'long_name': 'Taiwan', 'short_name': 'TW', 'types': ['country', 'political']}, {'long_name': '110', 'short_name': '110', 'types': ['postal_code']}], 'formatted_address': 'No. 60, Songqin St, Xinyi District, Taipei City, Taiwan 110', 'geometry': {'location': {'lat': 25.0313662, 'lng': 121.5629871}, 'location_type': 'ROOFTOP', 'viewport': {'northeast': {'lat': 25.0327151802915, 'lng': 121.5643360802915}, 'southwest': {'lat': 25.03001721970849, 'lng': 121.5616381197085}}}, 'place_id': 'ChIJy__JKbSrQjQRkte7Vbz5Z38', 'plus_code': {'compound_code': '2HJ7+G5 Xinyi District, Taipei City, Taiwan', 'global_code': '7QQ32HJ7+G5'}, 'types': ['street_address']}]",OK
16,"[{'address_components': [{'long_name': '226', 'short_name': '226', 'types': ['street_number']}, {'long_name': 'Songren Road', 'short_name': 'Songren Rd', 'types': ['route']}, {'long_name': '三張里', 'short_name': '三張里', 'types': ['administrative_area_level_4', 'political']}, {'long_name': 'Xinyi District', 'short_name': 'Xinyi District', 'types': ['administrative_area_level_3', 'political']}, {'long_name': 'Taipei City', 'short_name': 'Taipei City', 'types': ['administrative_area_level_1', 'political']}, {'long_name': 'Taiwan', 'short_name': 'TW', 'types': ['country', 'political']}, {'long_name': '110', 'short_name': '110', 'types': ['postal_code']}], 'formatted_address': 'No. 226, Songren Rd, Xinyi District, Taipei City, Taiwan 110', 'geometry': {'location': {'lat': 25.0254012, 'lng': 121.5677892}, 'location_type': 'ROOFTOP', 'viewport': {'northeast': {'lat': 25.0267501802915, 'lng': 121.5691381802915}, 'southwest': {'lat': 25.0240522197085, 'lng': 121.5664402197085}}}, 'place_id': 'ChIJkw631rKrQjQRdPoLJqS085Y', 'plus_code': {'compound_code': '2HG9+54 Xinyi District, Taipei City, Taiwan', 'global_code': '7QQ32HG9+54'}, 'types': ['street_address']}]",OK
17,"[{'address_components': [{'long_name': '253', 'short_name': '253', 'types': ['street_number']}, {'long_name': 'Fude Street', 'short_name': 'Fude St', 'types': ['route']}, {'long_name': '中行里', 'short_name': '中行里', 'types': ['administrative_area_level_4', 'political']}, {'long_name': 'Xinyi District', 'short_name': 'Xinyi District', 'types': ['administrative_area_level_3', 'political']}, {'long_name': 'Taipei City', 'short_name': 'Taipei City', 'types': ['administrative_area_level_1', 'political']}, {'long_name': 'Taiwan', 'short_name': 'TW', 'types': ['country', 'political']}, {'long_name': '110', 'short_name': '110', 'types': ['postal_code']}], 'formatted_address': 'No. 253, Fude St, Xinyi District, Taipei City, Taiwan 110', 'geometry': {'bounds': {'northeast': {'lat': 25.0389239, 'lng': 121.587129}, 'southwest': {'lat': 25.0380775, 'lng': 121.5861441}}, 'location': {'lat': 25.0384781, 'lng': 121.5866322}, 'location_type': 'ROOFTOP', 'viewport': {'northeast': {'lat': 25.0398496802915, 'lng': 121.5879855302915}, 'southwest': {'lat': 25.0371517197085, 'lng': 121.5852875697085}}}, 'place_id': 'ChIJPRImvwurQjQRp2qH-niHQLQ', 'types': ['premise']}]",OK
18,"[{'address_components': [{'long_name': '5', 'short_name': '5', 'types': ['street_number']}, {'long_name': 'Lane 287, Songshan Road', 'short_name': 'Lane 287, Songshan Rd', 'types': ['route']}, {'long_name': '永春里', 'short_name': '永春里', 'types': ['administrative_area_level_4', 'political']}, {'long_name': 'Xinyi District', 'short_name': 'Xinyi District', 'types': ['administrative_area_level_3', 'political']}, {'long_name': 'Taipei City', 'short_name': 'Taipei City', 'types': ['administrative_area_level_1', 'political']}, {'long_name': 'Taiwan', 'short_name': 'TW', 'types': ['country', 'political']}, {'long_name': '110', 'short_name': '110', 'types': ['postal_code']}], 'formatted_address': 'No. 5, Lane 287, Songshan Rd, Xinyi District, Taipei City, Taiwan 110', 'geometry': {'location': {'lat': 25.0430088, 'lng': 121.5798853}, 'location_type': 'ROOFTOP', 'viewport': {'northeast': {'lat': 25.0443577802915, 'lng': 121.5812342802915}, 'southwest': {'lat': 25.0416598197085, 'lng': 121.5785363197085}}}, 'place_id': 'ChIJg5tAM6CrQjQRn15RjBkeWjY', 'plus_code': {'compound_code': '2HVH+6X Xinyi District, Taipei City, Taiwan', 'global_code': '7QQ32HVH+6X'}, 'types': ['street_address']}]",OK
19,"[{'address_components': [{'long_name': '22', 'short_name': '22', 'types': ['street_number']}, {'long_name': 'Songren Road', 'short_name': 'Songren Rd', 'types': ['route']}, {'long_name': '興雅里', 'short_name': '興雅里', 'types': ['administrative_area_level_4', 'political']}, {'long_name': 'Xinyi District', 'short_name': 'Xinyi District', 'types': ['administrative_area_level_3', 'political']}, {'long_name': 'Taipei City', 'short_name': 'Taipei City', 'types': ['administrative_area_level_1', 'political']}, {'long_name': 'Taiwan', 'short_name': 'TW', 'types': ['country', 'political']}, {'long_name': '110', 'short_name': '110', 'types': ['postal_code']}], 'formatted_address': 'No. 22, Songren Rd, Xinyi District, Taipei City, Taiwan 110', 'geometry': {'location': {'lat': 25.0395323, 'lng': 121.5675875}, 'location_type': 'ROOFTOP', 'viewport': {'northeast': {'lat': 25.0408812802915, 'lng': 121.5689364802915}, 'southwest': {'lat': 25.03818331970849, 'lng': 121.5662385197085}}}, 'place_id': 'ChIJcScsprurQjQRHXXH1gYaZKM', 'plus_code': {'compound_code': '2HQ9+R2 Xinyi District, Taipei City, Taiwan', 'global_code': '7QQ32HQ9+R2'}, 'types': ['street_address']}]",OK
20,"[{'address_components': [{'long_name': '33', 'short_name': '33', 'types': ['street_number']}, {'long_name': 'Section 3, Xinsheng South Road', 'short_name': 'Section 3, Xinsheng S Rd', 'types': ['route']}, {'long_name': '龍門里', 'short_name': '龍門里', 'types': ['administrative_area_level_4', 'political']}, {'long_name': 'Da’an District', 'short_name': 'Da’an District', 'types': ['administrative_area_level_3', 'political']}, {'long_name': 'Taipei City', 'short_name': 'Taipei City', 'types': ['administrative_area_level_1', 'political']}, {'long_name': 'Taiwan', 'short_name': 'TW', 'types': ['country', 'political']}, {'long_name': '106', 'short_name': '106', 'types': ['postal_code']}], 'formatted_address': 'No. 33, Section 3, Xinsheng S Rd, Da’an District, Taipei City, Taiwan 106', 'geometry': {'location': {'lat': 25.0238933, 'lng': 121.5348427}, 'location_type': 'ROOFTOP', 'viewport': {'northeast': {'lat': 25.0252422802915, 'lng': 121.5361916802915}, 'southwest': {'lat': 25.02254431970849, 'lng': 121.5334937197085}}}, 'place_id': 'ChIJRxbcx4epQjQRrlISA44Uk5o', 'plus_code': {'compound_code': '2GFM+HW Da’an District, Taipei City, Taiwan', 'global_code': '7QQ32GFM+HW'}, 'types': ['street_address']}]",OK
21,"[{'address_components': [{'long_name': '129', 'short_name': '129', 'types': ['street_number']}, {'long_name': 'Wolong Street', 'short_name': 'Wolong St', 'types': ['route']}, {'long_name': '芳和里', 'short_name': '芳和里', 'types': ['administrative_area_level_4', 'political']}, {'long_name': 'Da’an District', 'short_name': 'Da’an District', 'types': ['administrative_area_level_3', 'political']}, {'long_name': 'Taipei City', 'short_name': 'Taipei City', 'types': ['administrative_area_level_1', 'political']}, {'long_name': 'Taiwan', 'short_name': 'TW', 'types': ['country', 'political']}, {'long_name': '106', 'short_name': '106', 'types': ['postal_code']}], 'formatted_address': 'No. 129, Wolong St, Da’an District, Taipei City, Taiwan 106', 'geometry': {'bounds': {'northeast': {'lat': 25.0192735, 'lng': 121.5508516}, 'southwest': {'lat': 25.0191412, 'lng': 121.5506945}}, 'location': {'lat': 25.019229, 'lng': 121.5507594}, 'location_type': 'ROOFTOP', 'viewport': {'northeast': {'lat': 25.02055633029151, 'lng': 121.5521220302915}, 'southwest': {'lat': 25.0178583697085, 'lng': 121.5494240697085}}}, 'place_id': 'ChIJS2ZjeTCqQjQRHcpZCoiHMz8', 'types': ['premise']}]",OK
22,"[{'address_components': [{'long_name': '22', 'short_name': '22', 'types': ['street_number']}, {'long_name': ""Section 3, Ren'ai Road"", 'short_name': ""Section 3, Ren'ai Rd"", 'types': ['route']}, {'long_name': '民炤里', 'short_name': '民炤里', 'types': ['administrative_area_level_4', 'political']}, {'long_name': 'Da’an District', 'short_name': 'Da’an District', 'types': ['administrative_area_level_3', 'political']}, {'long_name': 'Taipei City', 'short_name': 'Taipei City', 'types': ['administrative_area_level_1', 'political']}, {'long_name': 'Taiwan', 'short_name': 'TW', 'types': ['country', 'political']}, {'long_name': '106', 'short_name': '106', 'types': ['postal_code']}], 'formatted_address': ""No. 22, Section 3, Ren'ai Rd, Da’an District, Taipei City, Taiwan 106"", 'geometry': {'bounds': {'northeast': {'lat': 25.0375241, 'lng': 121.5355212}, 'southwest': {'lat': 25.036983, 'lng': 121.5343842}}, 'location': {'lat': 25.0374655, 'lng': 121.5346364}, 'location_type': 'ROOFTOP', 'viewport': {'northeast': {'lat': 25.0386025302915, 'lng': 121.5363016802915}, 'southwest': {'lat': 25.0359045697085, 'lng': 121.5336037197085}}}, 'place_id': 'ChIJB26fQn6pQjQR2dGV09WGMz8', 'types': ['premise']}]",OK
23,"[{'address_components': [{'long_name': '99', 'short_name': '99', 'types': ['street_number']}, {'long_name': ""Section 2, Da'an Road"", 'short_name': ""Section 2, Da'an Rd"", 'types': ['route']}, {'long_name': '龍雲里', 'short_name': '龍雲里', 'types': ['administrative_area_level_4', 'political']}, {'long_name': 'Da’an District', 'short_name': 'Da’an District', 'types': ['administrative_area_level_3', 'political']}, {'long_name': 'Taipei City', 'short_name': 'Taipei City', 'types': ['administrative_area_level_1', 'political']}, {'long_name': 'Taiwan', 'short_name': 'TW', 'types': ['country', 'political']}, {'long_name': '106', 'short_name': '106', 'types': ['postal_code']}], 'formatted_address': ""No. 99, Section 2, Da'an Rd, Da’an District, Taipei City, Taiwan 106"", 'geometry': {'location': {'lat': 25.029362, 'lng': 121.5461699}, 'location_type': 'ROOFTOP', 'viewport': {'northeast': {'lat': 25.0307109802915, 'lng': 121.5475188802915}, 'southwest': {'lat': 25.0280130197085, 'lng': 121.5448209197085}}}, 'place_id': 'ChIJc_ONIi2qQjQRc4bKBNf1644', 'plus_code': {'compound_code': '2GHW+PF Da’an District, Taipei City, Taiwan', 'global_code': '7QQ32GHW+PF'}, 'types': ['street_address']}]",OK
24,"[{'address_components': [{'long_name': '60', 'short_name': '60', 'types': ['street_number']}, {'long_name': 'Section 1, Anhe Road', 'short_name': 'Section 1, Anhe Rd', 'types': ['route']}, {'long_name': '敦安里', 'short_name': '敦安里', 'types': ['administrative_area_level_4', 'political']}, {'long_name': 'Da’an District', 'short_name': 'Da’an District', 'types': ['administrative_area_level_3', 'political']}, {'long_name': 'Taipei City', 'short_name': 'Taipei City', 'types': ['administrative_area_level_1', 'political']}, {'long_name': 'Taiwan', 'short_name': 'TW', 'types': ['country', 'political']}, {'long_name': '106', 'short_name': '106', 'types': ['postal_code']}], 'formatted_address': 'No. 60, Section 1, Anhe Rd, Da’an District, Taipei City, Taiwan 106', 'geometry': {'location': {'lat': 25.036533, 'lng': 121.5510218}, 'location_type': 'ROOFTOP', 'viewport': {'northeast': {'lat': 25.03788198029151, 'lng': 121.5523707802915}, 'southwest': {'lat': 25.0351840197085, 'lng': 121.5496728197085}}}, 'place_id': 'ChIJz9unlM6rQjQR1FH8YTKZnfk', 'plus_code': {'compound_code': '2HP2+JC Da’an District, Taipei City, Taiwan', 'global_code': '7QQ32HP2+JC'}, 'types': ['street_address']}]",OK
25,"[{'address_components': [{'long_name': '11', 'short_name': '11', 'types': ['street_number']}, {'long_name': 'Lane 79, Aiguo East Road', 'short_name': 'Lane 79, Aiguo E Rd', 'types': ['route']}, {'long_name': 'East Gate', 'short_name': 'East Gate', 'types': ['neighborhood', 'political']}, {'long_name': '永康里', 'short_name': '永康里', 'types': ['administrative_area_level_4', 'political']}, {'long_name': 'Da’an District', 'short_name': 'Da’an District', 'types': ['administrative_area_level_3', 'political']}, {'long_name': 'Taipei City', 'short_name': 'Taipei City', 'types': ['administrative_area_level_1', 'political']}, {'long_name': 'Taiwan', 'short_name': 'TW', 'types': ['country', 'political']}, {'long_name': '106', 'short_name': '106', 'types': ['postal_code']}], 'formatted_address': 'No. 11, Lane 79, Aiguo E Rd, Da’an District, Taipei City, Taiwan 106', 'geometry': {'bounds': {'northeast': {'lat': 25.0324648, 'lng': 121.528845}, 'southwest': {'lat': 25.0319371, 'lng': 121.5277148}}, 'location': {'lat': 25.0320401, 'lng': 121.5280125}, 'location_type': 'ROOFTOP', 'viewport': {'northeast': {'lat': 25.0335499302915, 'lng': 121.5296288802915}, 'southwest': {'lat': 25.0308519697085, 'lng': 121.5269309197085}}}, 'place_id': 'ChIJFR4qAIOpQjQRIH9S4_fRzyQ', 'types': ['premise']}]",OK
26,"[{'address_components': [{'long_name': '201', 'short_name': '201', 'types': ['street_number']}, {'long_name': 'Section 3, Roosevelt Road', 'short_name': 'Section 3, Roosevelt Rd', 'types': ['route']}, {'long_name': '古風里', 'short_name': '古風里', 'types': ['administrative_area_level_4', 'political']}, {'long_name': 'Da’an District', 'short_name': 'Da’an District', 'types': ['administrative_area_level_3', 'political']}, {'long_name': 'Taipei City', 'short_name': 'Taipei City', 'types': ['administrative_area_level_1', 'political']}, {'long_name': 'Taiwan', 'short_name': 'TW', 'types': ['country', 'political']}, {'long_name': '106', 'short_name': '106', 'types': ['postal_code']}], 'formatted_address': 'No. 201, Section 3, Roosevelt Rd, Da’an District, Taipei City, Taiwan 106', 'geometry': {'location': {'lat': 25.0207484, 'lng': 121.5289138}, 'location_type': 'ROOFTOP', 'viewport': {'northeast': {'lat': 25.0220973802915, 'lng': 121.5302627802915}, 'southwest': {'lat': 25.0193994197085, 'lng': 121.5275648197085}}}, 'place_id': 'ChIJDZTL9o6pQjQRuDATUTt140A', 'plus_code': {'compound_code': '2GCH+7H Da’an District, Taipei City, Taiwan', 'global_code': '7QQ32GCH+7H'}, 'types': ['street_address']}]",OK
27,"[{'address_components': [{'long_name': '21號', 'short_name': '21號', 'types': ['street_number']}, {'long_name': 'Section 4, Roosevelt Road', 'short_name': 'Section 4, Roosevelt Rd', 'types': ['route']}, {'long_name': 'Da’an District', 'short_name': 'Da’an District', 'types': ['administrative_area_level_3', 'political']}, {'long_name': 'Taipei City', 'short_name': 'Taipei City', 'types': ['administrative_area_level_1', 'political']}, {'long_name': 'Taiwan', 'short_name': 'TW', 'types': ['country', 'political']}, {'long_name': '10673', 'short_name': '10673', 'types': ['postal_code']}], 'formatted_address': 'No. 21號, Section 4, Roosevelt Rd, Da’an District, Taipei City, Taiwan 10673', 'geometry': {'location': {'lat': 25.0140674, 'lng': 121.5354217}, 'location_type': 'ROOFTOP', 'viewport': {'northeast': {'lat': 25.0154163802915, 'lng': 121.5367706802915}, 'southwest': {'lat': 25.0127184197085, 'lng': 121.5340727197085}}}, 'partial_match': True, 'place_id': 'ChIJBaG684qpQjQRXUnKZKJ_kmA', 'types': ['establishment', 'point_of_interest', 'primary_school', 'school']}]",OK
28,"[{'address_components': [{'long_name': '2', 'short_name': '2', 'types': ['street_number']}, {'long_name': 'Alley 68, Lane 41, Section 4, Jilong Road', 'short_name': 'Alley 68, Lane 41, Section 4, Jilong Rd', 'types': ['route']}, {'long_name': '學府里', 'short_name': '學府里', 'types': ['administrative_area_level_4', 'political']}, {'long_name': 'Da’an District', 'short_name': 'Da’an District', 'types': ['administrative_area_level_3', 'political']}, {'long_name': 'Taipei City', 'short_name': 'Taipei City', 'types': ['administrative_area_level_1', 'political']}, {'long_name': 'Taiwan', 'short_name': 'TW', 'types': ['country', 'political']}, {'long_name': '106', 'short_name': '106', 'types': ['postal_code']}], 'formatted_address': 'No. 2, Alley 68, Lane 41, Section 4, Jilong Rd, Da’an District, Taipei City, Taiwan 106', 'geometry': {'location': {'lat': 25.0123819, 'lng': 121.5427934}, 'location_type': 'ROOFTOP', 'viewport': {'northeast': {'lat': 25.0137308802915, 'lng': 121.5441423802915}, 'southwest': {'lat': 25.0110329197085, 'lng': 121.5414444197085}}}, 'place_id': 'ChIJhdKkKSKqQjQRW6qfBYHm7Cc', 'plus_code': {'compound_code': '2G6V+X4 Da’an District, Taipei City, Taiwan', 'global_code': '7QQ32G6V+X4'}, 'types': ['street_address']}]",OK
29,"[{'address_components': [{'long_name': '36', 'short_name': '36', 'types': ['street_number']}, {'long_name': 'Section 2, Xinsheng South Road', 'short_name': 'Section 2, Xinsheng S Rd', 'types': ['route']}, {'long_name': '龍安里', 'short_name': '龍安里', 'types': ['administrative_area_level_4', 'political']}, {'long_name': 'Da’an District', 'short_name': 'Da’an District', 'types': ['administrative_area_level_3', 'political']}, {'long_name': 'Taipei City', 'short_name': 'Taipei City', 'types': ['administrative_area_level_1', 'political']}, {'long_name': 'Taiwan', 'short_name': 'TW', 'types': ['country', 'political']}, {'long_name': '106', 'short_name': '106', 'types': ['postal_code']}], 'formatted_address': 'No. 36, Section 2, Xinsheng S Rd, Da’an District, Taipei City, Taiwan 106', 'geometry': {'bounds': {'northeast': {'lat': 25.0302842, 'lng': 121.533522}, 'southwest': {'lat': 25.0291994, 'lng': 121.5325545}}, 'location': {'lat': 25.0297555, 'lng': 121.5328812}, 'location_type': 'ROOFTOP', 'viewport': {'northeast': {'lat': 25.0310907802915, 'lng': 121.5343872302915}, 'southwest': {'lat': 25.0283928197085, 'lng': 121.5316892697085}}}, 'place_id': 'ChIJB_TtP4GpQjQR5IuOQ01GzpY', 'types': ['premise']}]",OK
30,"[{'address_components': [{'long_name': '28', 'short_name': '28', 'types': ['street_number']}, {'long_name': 'Lane 76, Dunnan Street', 'short_name': 'Lane 76, Dunnan St', 'types': ['route']}, {'long_name': '臥龍里', 'short_name': '臥龍里', 'types': ['administrative_area_level_4', 'political']}, {'long_name': 'Da’an District', 'short_name': 'Da’an District', 'types': ['administrative_area_level_3', 'political']}, {'long_name': 'Taipei City', 'short_name': 'Taipei City', 'types': ['administrative_area_level_1', 'political']}, {'long_name': 'Taiwan', 'short_name': 'TW', 'types': ['country', 'political']}, {'long_name': '106', 'short_name': '106', 'types': ['postal_code']}], 'formatted_address': 'No. 28, Lane 76, Dunnan St, Da’an District, Taipei City, Taiwan 106', 'geometry': {'location': {'lat': 25.0213639, 'lng': 121.5453266}, 'location_type': 'ROOFTOP', 'viewport': {'northeast': {'lat': 25.0227128802915, 'lng': 121.5466755802915}, 'southwest': {'lat': 25.02001491970849, 'lng': 121.5439776197085}}}, 'place_id': 'ChIJhxBbdC-qQjQRB9-jCcskkqY', 'plus_code': {'compound_code': '2GCW+G4 Da’an District, Taipei City, Taiwan', 'global_code': '7QQ32GCW+G4'}, 'types': ['street_address']}]",OK
31,"[{'address_components': [{'long_name': '69', 'short_name': '69', 'types': ['street_number']}, {'long_name': 'Section 1, Minquan East Road', 'short_name': 'Section 1, Minquan E Rd', 'types': ['route']}, {'long_name': '恆安里', 'short_name': '恆安里', 'types': ['administrative_area_level_4', 'political']}, {'long_name': 'Zhongshan District', 'short_name': 'Zhongshan District', 'types': ['administrative_area_level_3', 'political']}, {'long_name': 'Taipei City', 'short_name': 'Taipei City', 'types': ['administrative_area_level_1', 'political']}, {'long_name': 'Taiwan', 'short_name': 'TW', 'types': ['country', 'political']}, {'long_name': '10491', 'short_name': '10491', 'types': ['postal_code']}], 'formatted_address': 'No. 69, Section 1, Minquan E Rd, Zhongshan District, Taipei City, Taiwan 10491', 'geometry': {'bounds': {'northeast': {'lat': 25.0643681, 'lng': 121.5271195}, 'southwest': {'lat': 25.0629016, 'lng': 121.5258402}}, 'location': {'lat': 25.0636402, 'lng': 121.5269643}, 'location_type': 'ROOFTOP', 'viewport': {'northeast': {'lat': 25.06498383029151, 'lng': 121.5278288302915}, 'southwest': {'lat': 25.0622858697085, 'lng': 121.5251308697085}}}, 'place_id': 'ChIJvVa7SFupQjQR2nBnyHL2vT0', 'types': ['premise']}]",OK
32,"[{'address_components': [{'long_name': '62', 'short_name': '62', 'types': ['street_number']}, {'long_name': 'Long Jiang Road', 'short_name': 'Long Jiang Rd', 'types': ['route']}, {'long_name': '力行里', 'short_name': '力行里', 'types': ['administrative_area_level_4', 'political']}, {'long_name': 'Zhongshan District', 'short_name': 'Zhongshan District', 'types': ['administrative_area_level_3', 'political']}, {'long_name': 'Taipei City', 'short_name': 'Taipei City', 'types': ['administrative_area_level_1', 'political']}, {'long_name': 'Taiwan', 'short_name': 'TW', 'types': ['country', 'political']}, {'long_name': '10491', 'short_name': '10491', 'types': ['postal_code']}], 'formatted_address': 'No. 62, Long Jiang Rd, Zhongshan District, Taipei City, Taiwan 10491', 'geometry': {'location': {'lat': 25.050468, 'lng': 121.5400729}, 'location_type': 'ROOFTOP', 'viewport': {'northeast': {'lat': 25.0518169802915, 'lng': 121.5414218802915}, 'southwest': {'lat': 25.0491190197085, 'lng': 121.5387239197085}}}, 'place_id': 'ChIJ78EC_96rQjQRlrzh-gGaTGI', 'plus_code': {'compound_code': '3G2R+52 Zhongshan District, Taipei City, Taiwan', 'global_code': '7QQ33G2R+52'}, 'types': ['street_address']}]",OK
33,"[{'address_components': [{'long_name': '15', 'short_name': '15', 'types': ['street_number']}, {'long_name': 'Jilin Road', 'short_name': 'Jilin Rd', 'types': ['route']}, {'long_name': '興亞里', 'short_name': '興亞里', 'types': ['administrative_area_level_4', 'political']}, {'long_name': 'Zhongshan District', 'short_name': 'Zhongshan District', 'types': ['administrative_area_level_3', 'political']}, {'long_name': 'Taipei City', 'short_name': 'Taipei City', 'types': ['administrative_area_level_1', 'political']}, {'long_name': 'Taiwan', 'short_name': 'TW', 'types': ['country', 'political']}, {'long_name': '10491', 'short_name': '10491', 'types': ['postal_code']}], 'formatted_address': 'No. 15, Jilin Rd, Zhongshan District, Taipei City, Taiwan 10491', 'geometry': {'bounds': {'northeast': {'lat': 25.0498537, 'lng': 121.5302178}, 'southwest': {'lat': 25.049797, 'lng': 121.5301704}}, 'location': {'lat': 25.0498163, 'lng': 121.5301871}, 'location_type': 'ROOFTOP', 'viewport': {'northeast': {'lat': 25.0511743302915, 'lng': 121.5315430802915}, 'southwest': {'lat': 25.0484763697085, 'lng': 121.5288451197085}}}, 'place_id': 'ChIJSad4GWSpQjQR3bPlMyHDATE', 'types': ['premise']}]",OK
34,"[{'address_components': [{'long_name': '165', 'short_name': '165', 'types': ['street_number']}, {'long_name': 'Changchun Road', 'short_name': 'Changchun Rd', 'types': ['route']}, {'long_name': '中央里', 'short_name': '中央里', 'types': ['administrative_area_level_4', 'political']}, {'long_name': 'Zhongshan District', 'short_name': 'Zhongshan District', 'types': ['administrative_area_level_3', 'political']}, {'long_name': 'Taipei City', 'short_name': 'Taipei City', 'types': ['administrative_area_level_1', 'political']}, {'long_name': 'Taiwan', 'short_name': 'TW', 'types': ['country', 'political']}, {'long_name': '10491', 'short_name': '10491', 'types': ['postal_code']}], 'formatted_address': 'No. 165, Changchun Rd, Zhongshan District, Taipei City, Taiwan 10491', 'geometry': {'location': {'lat': 25.0550146, 'lng': 121.533902}, 'location_type': 'ROOFTOP', 'viewport': {'northeast': {'lat': 25.0563635802915, 'lng': 121.5352509802915}, 'southwest': {'lat': 25.0536656197085, 'lng': 121.5325530197085}}}, 'place_id': 'ChIJH2ayK16pQjQRbz7EJVas3YM', 'plus_code': {'compound_code': '3G4M+2H Zhongshan District, Taipei City, Taiwan', 'global_code': '7QQ33G4M+2H'}, 'types': ['street_address']}]",OK
35,"[{'address_components': [{'long_name': '2', 'short_name': '2', 'types': ['street_number']}, {'long_name': 'Dazhi Street', 'short_name': 'Dazhi St', 'types': ['route']}, {'long_name': 'Dazhi', 'short_name': 'Dazhi', 'types': ['neighborhood', 'political']}, {'long_name': '大直里', 'short_name': '大直里', 'types': ['administrative_area_level_4', 'political']}, {'long_name': 'Zhongshan District', 'short_name': 'Zhongshan District', 'types': ['administrative_area_level_3', 'political']}, {'long_name': 'Taipei City', 'short_name': 'Taipei City', 'types': ['administrative_area_level_1', 'political']}, {'long_name': 'Taiwan', 'short_name': 'TW', 'types': ['country', 'political']}, {'long_name': '10491', 'short_name': '10491', 'types': ['postal_code']}], 'formatted_address': 'No. 2, Dazhi St, Zhongshan District, Taipei City, Taiwan 10491', 'geometry': {'location': {'lat': 25.0805426, 'lng': 121.5462377}, 'location_type': 'ROOFTOP', 'viewport': {'northeast': {'lat': 25.0818915802915, 'lng': 121.5475866802915}, 'southwest': {'lat': 25.07919361970849, 'lng': 121.5448887197085}}}, 'place_id': 'ChIJk9UApQWsQjQR_i7FJgviYh4', 'plus_code': {'compound_code': '3GJW+6F Zhongshan District, Taipei City, Taiwan', 'global_code': '7QQ33GJW+6F'}, 'types': ['street_address']}]",OK
36,"[{'address_components': [{'long_name': '107', 'short_name': '107', 'types': ['street_number']}, {'long_name': 'Binjiang Street', 'short_name': 'Binjiang St', 'types': ['route']}, {'long_name': '大佳里', 'short_name': '大佳里', 'types': ['administrative_area_level_4', 'political']}, {'long_name': 'Zhongshan District', 'short_name': 'Zhongshan District', 'types': ['administrative_area_level_3', 'political']}, {'long_name': 'Taipei City', 'short_name': 'Taipei City', 'types': ['administrative_area_level_1', 'political']}, {'long_name': 'Taiwan', 'short_name': 'TW', 'types': ['country', 'political']}, {'long_name': '10491', 'short_name': '10491', 'types': ['postal_code']}], 'formatted_address': 'No. 107, Binjiang St, Zhongshan District, Taipei City, Taiwan 10491', 'geometry': {'location': {'lat': 25.0733492, 'lng': 121.5364113}, 'location_type': 'ROOFTOP', 'viewport': {'northeast': {'lat': 25.0746981802915, 'lng': 121.5377602802915}, 'southwest': {'lat': 25.0720002197085, 'lng': 121.5350623197085}}}, 'place_id': 'ChIJTYxAc1WpQjQRvWbcEdaI1OQ', 'plus_code': {'compound_code': '3GFP+8H Zhongshan District, Taipei City, Taiwan', 'global_code': '7QQ33GFP+8H'}, 'types': ['establishment', 'point_of_interest', 'primary_school', 'school']}]",OK
37,"[{'address_components': [{'long_name': '16', 'short_name': '16', 'types': ['street_number']}, {'long_name': 'Wuchang Street', 'short_name': 'Wuchang St', 'types': ['route']}, {'long_name': '下埤里', 'short_name': '下埤里', 'types': ['administrative_area_level_4', 'political']}, {'long_name': 'Zhongshan District', 'short_name': 'Zhongshan District', 'types': ['administrative_area_level_3', 'political']}, {'long_name': 'Taipei City', 'short_name': 'Taipei City', 'types': ['administrative_area_level_1', 'political']}, {'long_name': 'Taiwan', 'short_name': 'TW', 'types': ['country', 'political']}, {'long_name': '10491', 'short_name': '10491', 'types': ['postal_code']}], 'formatted_address': 'No. 16, Wuchang St, Zhongshan District, Taipei City, Taiwan 10491', 'geometry': {'location': {'lat': 25.0641393, 'lng': 121.5422023}, 'location_type': 'ROOFTOP', 'viewport': {'northeast': {'lat': 25.0654882802915, 'lng': 121.5435512802915}, 'southwest': {'lat': 25.0627903197085, 'lng': 121.5408533197085}}}, 'place_id': 'ChIJY6OXpfyrQjQR13O9DhKNKLk', 'plus_code': {'compound_code': '3G7R+MV Zhongshan District, Taipei City, Taiwan', 'global_code': '7QQ33G7R+MV'}, 'types': ['street_address']}]",OK
38,"[{'address_components': [{'long_name': '116', 'short_name': '116', 'types': ['street_number']}, {'long_name': 'Changchun Road', 'short_name': 'Changchun Rd', 'types': ['route']}, {'long_name': '中原里', 'short_name': '中原里', 'types': ['administrative_area_level_4', 'political']}, {'long_name': 'Zhongshan District', 'short_name': 'Zhongshan District', 'types': ['administrative_area_level_3', 'political']}, {'long_name': 'Taipei City', 'short_name': 'Taipei City', 'types': ['administrative_area_level_1', 'political']}, {'long_name': 'Taiwan', 'short_name': 'TW', 'types': ['country', 'political']}, {'long_name': '10491', 'short_name': '10491', 'types': ['postal_code']}], 'formatted_address': 'No. 116, Changchun Rd, Zhongshan District, Taipei City, Taiwan 10491', 'geometry': {'location': {'lat': 25.0547389, 'lng': 121.5295852}, 'location_type': 'ROOFTOP', 'viewport': {'northeast': {'lat': 25.0560878802915, 'lng': 121.5309341802915}, 'southwest': {'lat': 25.0533899197085, 'lng': 121.5282362197085}}}, 'place_id': 'ChIJHd7Pa2epQjQRaZyTz2cmijc', 'plus_code': {'compound_code': '3G3H+VR Zhongshan District, Taipei City, Taiwan', 'global_code': '7QQ33G3H+VR'}, 'types': ['street_address']}]",OK
39,"[{'address_components': [{'long_name': '2', 'short_name': '2', 'types': ['street_number']}, {'long_name': 'Lane 16, Andong Street', 'short_name': 'Lane 16, Andong St', 'types': ['route']}, {'long_name': '埤頭里', 'short_name': '埤頭里', 'types': ['administrative_area_level_4', 'political']}, {'long_name': 'Zhongshan District', 'short_name': 'Zhongshan District', 'types': ['administrative_area_level_3', 'political']}, {'long_name': 'Taipei City', 'short_name': 'Taipei City', 'types': ['administrative_area_level_1', 'political']}, {'long_name': 'Taiwan', 'short_name': 'TW', 'types': ['country', 'political']}, {'long_name': '10491', 'short_name': '10491', 'types': ['postal_code']}], 'formatted_address': 'No. 2, Lane 16, Andong St, Zhongshan District, Taipei City, Taiwan 10491', 'geometry': {'location': {'lat': 25.0452772, 'lng': 121.5417314}, 'location_type': 'ROOFTOP', 'viewport': {'northeast': {'lat': 25.0466261802915, 'lng': 121.5430803802915}, 'southwest': {'lat': 25.04392821970849, 'lng': 121.5403824197085}}}, 'place_id': 'ChIJUfjQdtmrQjQRXebaeFJ2yis', 'plus_code': {'compound_code': '2GWR+4M Zhongshan District, Taipei City, Taiwan', 'global_code': '7QQ32GWR+4M'}, 'types': ['street_address']}]",OK
40,"[{'address_components': [{'long_name': '1', 'short_name': '1', 'types': ['street_number']}, {'long_name': 'Alley 19, Lane 397, Mingshui Road', 'short_name': 'Alley 19, Lane 397, Mingshui Rd', 'types': ['route']}, {'long_name': 'Dazhi', 'short_name': 'Dazhi', 'types': ['neighborhood', 'political']}, {'long_name': '永安里', 'short_name': '永安里', 'types': ['administrative_area_level_4', 'political']}, {'long_name': 'Zhongshan District', 'short_name': 'Zhongshan District', 'types': ['administrative_area_level_3', 'political']}, {'long_name': 'Taipei City', 'short_name': 'Taipei City', 'types': ['administrative_area_level_1', 'political']}, {'long_name': 'Taiwan', 'short_name': 'TW', 'types': ['country', 'political']}, {'long_name': '10491', 'short_name': '10491', 'types': ['postal_code']}], 'formatted_address': 'No. 1, Alley 19, Lane 397, Mingshui Rd, Zhongshan District, Taipei City, Taiwan 10491', 'geometry': {'location': {'lat': 25.0793638, 'lng': 121.549428}, 'location_type': 'ROOFTOP', 'viewport': {'northeast': {'lat': 25.0807127802915, 'lng': 121.5507769802915}, 'southwest': {'lat': 25.0780148197085, 'lng': 121.5480790197085}}}, 'place_id': 'ChIJEe7KQw-sQjQR6xKWwBsc2yA', 'plus_code': {'compound_code': '3GHX+PQ Zhongshan District, Taipei City, Taiwan', 'global_code': '7QQ33GHX+PQ'}, 'types': ['street_address']}]",OK
41,"[{'address_components': [{'long_name': '99', 'short_name': '99', 'types': ['street_number']}, {'long_name': 'Lane 266, Lequner Road', 'short_name': 'Lane 266, Lequner Rd', 'types': ['route']}, {'long_name': 'Dazhi', 'short_name': 'Dazhi', 'types': ['neighborhood', 'political']}, {'long_name': '金泰里', 'short_name': '金泰里', 'types': ['administrative_area_level_4', 'political']}, {'long_name': 'Zhongshan District', 'short_name': 'Zhongshan District', 'types': ['administrative_area_level_3', 'political']}, {'long_name': 'Taipei City', 'short_name': 'Taipei City', 'types': ['administrative_area_level_1', 'political']}, {'long_name': 'Taiwan', 'short_name': 'TW', 'types': ['country', 'political']}, {'long_name': '10491', 'short_name': '10491', 'types': ['postal_code']}], 'formatted_address': 'No. 99, Lane 266, Lequner Rd, Zhongshan District, Taipei City, Taiwan 10491', 'geometry': {'location': {'lat': 25.0777662, 'lng': 121.5616848}, 'location_type': 'ROOFTOP', 'viewport': {'northeast': {'lat': 25.0791151802915, 'lng': 121.5630337802915}, 'southwest': {'lat': 25.0764172197085, 'lng': 121.5603358197085}}}, 'place_id': 'ChIJF53j5XKsQjQRKb8bfMS3NDk', 'plus_code': {'compound_code': '3HH6+4M Zhongshan District, Taipei City, Taiwan', 'global_code': '7QQ33HH6+4M'}, 'types': ['street_address']}]",OK
42,"[{'address_components': [{'long_name': '29', 'short_name': '29', 'types': ['street_number']}, {'long_name': 'Zhaoan Street', 'short_name': 'Zhaoan St', 'types': ['route']}, {'long_name': '螢雪里', 'short_name': '螢雪里', 'types': ['administrative_area_level_4', 'political']}, {'long_name': 'Zhongzheng District', 'short_name': 'Zhongzheng District', 'types': ['administrative_area_level_3', 'political']}, {'long_name': 'Taipei City', 'short_name': 'Taipei City', 'types': ['administrative_area_level_1', 'political']}, {'long_name': 'Taiwan', 'short_name': 'TW', 'types': ['country', 'political']}, {'long_name': '100', 'short_name': '100', 'types': ['postal_code']}], 'formatted_address': 'No. 29, Zhaoan St, Zhongzheng District, Taipei City, Taiwan 100', 'geometry': {'location': {'lat': 25.0251379, 'lng': 121.5143526}, 'location_type': 'ROOFTOP', 'viewport': {'northeast': {'lat': 25.0264868802915, 'lng': 121.5157015802915}, 'southwest': {'lat': 25.02378891970849, 'lng': 121.5130036197085}}}, 'place_id': 'ChIJZXSt1ZepQjQRVOPq9ZKLNQI', 'plus_code': {'compound_code': '2GG7+3P Zhongzheng District, Taipei City, Taiwan', 'global_code': '7QQ32GG7+3P'}, 'types': ['street_address']}]",OK
43,"[{'address_components': [{'long_name': '180', 'short_name': '180', 'types': ['street_number']}, {'long_name': 'Section 2, Tingzhou Road', 'short_name': 'Section 2, Tingzhou Rd', 'types': ['route']}, {'long_name': '河堤里', 'short_name': '河堤里', 'types': ['administrative_area_level_4', 'political']}, {'long_name': 'Zhongzheng District', 'short_name': 'Zhongzheng District', 'types': ['administrative_area_level_3', 'political']}, {'long_name': 'Taipei City', 'short_name': 'Taipei City', 'types': ['administrative_area_level_1', 'political']}, {'long_name': 'Taiwan', 'short_name': 'TW', 'types': ['country', 'political']}, {'long_name': '100', 'short_name': '100', 'types': ['postal_code']}], 'formatted_address': 'No. 180, Section 2, Tingzhou Rd, Zhongzheng District, Taipei City, Taiwan 100', 'geometry': {'bounds': {'northeast': {'lat': 25.0234755, 'lng': 121.5228197}, 'southwest': {'lat': 25.0223756, 'lng': 121.5216758}}, 'location': {'lat': 25.023202, 'lng': 121.5223251}, 'location_type': 'ROOFTOP', 'viewport': {'northeast': {'lat': 25.0242745302915, 'lng': 121.5235967302915}, 'southwest': {'lat': 25.0215765697085, 'lng': 121.5208987697085}}}, 'place_id': 'ChIJywp7ApGpQjQRnW5xk-iGMz8', 'types': ['premise']}]",OK
44,"[{'address_components': [{'long_name': '17', 'short_name': '17', 'types': ['street_number']}, {'long_name': 'Lane 307, Section 2, Zhonghua Road', 'short_name': 'Lane 307, Section 2, Zhonghua Rd', 'types': ['route']}, {'long_name': '忠勤里', 'short_name': '忠勤里', 'types': ['administrative_area_level_4', 'political']}, {'long_name': 'Zhongzheng District', 'short_name': 'Zhongzheng District', 'types': ['administrative_area_level_3', 'political']}, {'long_name': 'Taipei City', 'short_name': 'Taipei City', 'types': ['administrative_area_level_1', 'political']}, {'long_name': 'Taiwan', 'short_name': 'TW', 'types': ['country', 'political']}, {'long_name': '100', 'short_name': '100', 'types': ['postal_code']}], 'formatted_address': 'No. 17, Lane 307, Section 2, Zhonghua Rd, Zhongzheng District, Taipei City, Taiwan 100', 'geometry': {'bounds': {'northeast': {'lat': 25.029807, 'lng': 121.5062797}, 'southwest': {'lat': 25.0296126, 'lng': 121.5060832}}, 'location': {'lat': 25.0296997, 'lng': 121.5061869}, 'location_type': 'ROOFTOP', 'viewport': {'northeast': {'lat': 25.0310587802915, 'lng': 121.5075304302915}, 'southwest': {'lat': 25.0283608197085, 'lng': 121.5048324697085}}}, 'place_id': 'ChIJsYw50qSpQjQRD8i7BR-YHos', 'types': ['premise']}]",OK
45,"[{'address_components': [{'long_name': '58', 'short_name': '58', 'types': ['street_number']}, {'long_name': 'Nanhai Road', 'short_name': 'Nanhai Rd', 'types': ['route']}, {'long_name': '龍光里', 'short_name': '龍光里', 'types': ['administrative_area_level_4', 'political']}, {'long_name': 'Zhongzheng District', 'short_name': 'Zhongzheng District', 'types': ['administrative_area_level_3', 'political']}, {'long_name': 'Taipei City', 'short_name': 'Taipei City', 'types': ['administrative_area_level_1', 'political']}, {'long_name': 'Taiwan', 'short_name': 'TW', 'types': ['country', 'political']}, {'long_name': '100', 'short_name': '100', 'types': ['postal_code']}], 'formatted_address': 'No. 58, Nanhai Rd, Zhongzheng District, Taipei City, Taiwan 100', 'geometry': {'location': {'lat': 25.030645, 'lng': 121.510019}, 'location_type': 'ROOFTOP', 'viewport': {'northeast': {'lat': 25.0319939802915, 'lng': 121.5113679802915}, 'southwest': {'lat': 25.0292960197085, 'lng': 121.5086700197085}}}, 'place_id': 'ChIJIUEzD6OpQjQRl69q2VtnSY4', 'plus_code': {'compound_code': '2GJ6+72 Zhongzheng District, Taipei City, Taiwan', 'global_code': '7QQ32GJ6+72'}, 'types': ['street_address']}]",OK
46,"[{'address_components': [{'long_name': '6', 'short_name': '6', 'types': ['street_number']}, {'long_name': 'Guangzhou Street', 'short_name': 'Guangzhou St', 'types': ['route']}, {'long_name': ""Bo'ai Special Zone"", 'short_name': ""Bo'ai Special Zone"", 'types': ['neighborhood', 'political']}, {'long_name': '南門里', 'short_name': '南門里', 'types': ['administrative_area_level_4', 'political']}, {'long_name': 'Zhongzheng District', 'short_name': 'Zhongzheng District', 'types': ['administrative_area_level_3', 'political']}, {'long_name': 'Taipei City', 'short_name': 'Taipei City', 'types': ['administrative_area_level_1', 'political']}, {'long_name': 'Taiwan', 'short_name': 'TW', 'types': ['country', 'political']}, {'long_name': '100', 'short_name': '100', 'types': ['postal_code']}], 'formatted_address': 'No. 6, Guangzhou St, Zhongzheng District, Taipei City, Taiwan 100', 'geometry': {'location': {'lat': 25.0352657, 'lng': 121.5090687}, 'location_type': 'ROOFTOP', 'viewport': {'northeast': {'lat': 25.0366146802915, 'lng': 121.5104176802915}, 'southwest': {'lat': 25.0339167197085, 'lng': 121.5077197197085}}}, 'place_id': 'ChIJeRZdSKGpQjQRinVmaYjT1jc', 'plus_code': {'compound_code': '2GP5+4J Zhongzheng District, Taipei City, Taiwan', 'global_code': '7QQ32GP5+4J'}, 'types': ['street_address']}]",OK
47,"[{'address_components': [{'long_name': '2-4', 'short_name': '2-4', 'types': ['street_number']}, {'long_name': ""Section 1, Ren'ai Road"", 'short_name': ""Section 1, Ren'ai Rd"", 'types': ['route']}, {'long_name': '東門里', 'short_name': '東門里', 'types': ['administrative_area_level_4', 'political']}, {'long_name': 'Zhongzheng District', 'short_name': 'Zhongzheng District', 'types': ['administrative_area_level_3', 'political']}, {'long_name': 'Taipei City', 'short_name': 'Taipei City', 'types': ['administrative_area_level_1', 'political']}, {'long_name': 'Taiwan', 'short_name': 'TW', 'types': ['country', 'political']}, {'long_name': '100', 'short_name': '100', 'types': ['postal_code']}], 'formatted_address': ""No. 2-4, Section 1, Ren'ai Rd, Zhongzheng District, Taipei City, Taiwan 100"", 'geometry': {'location': {'lat': 25.0385756, 'lng': 121.5218142}, 'location_type': 'ROOFTOP', 'viewport': {'northeast': {'lat': 25.0399245802915, 'lng': 121.5231631802915}, 'southwest': {'lat': 25.0372266197085, 'lng': 121.5204652197085}}}, 'place_id': 'ChIJa1foZXapQjQRJ8LT650CFFc', 'plus_code': {'compound_code': '2GQC+CP Zhongzheng District, Taipei City, Taiwan', 'global_code': '7QQ32GQC+CP'}, 'types': ['street_address']}]",OK
48,"[{'address_components': [{'long_name': '101', 'short_name': '101', 'types': ['street_number']}, {'long_name': 'Section 2, Zhongxiao East Road', 'short_name': 'Section 2, Zhongxiao E Rd', 'types': ['route']}, {'long_name': 'East Gate', 'short_name': 'East Gate', 'types': ['neighborhood', 'political']}, {'long_name': '梅花里', 'short_name': '梅花里', 'types': ['administrative_area_level_4', 'political']}, {'long_name': 'Zhongzheng District', 'short_name': 'Zhongzheng District', 'types': ['administrative_area_level_3', 'political']}, {'long_name': 'Taipei City', 'short_name': 'Taipei City', 'types': ['administrative_area_level_1', 'political']}, {'long_name': 'Taiwan', 'short_name': 'TW', 'types': ['country', 'political']}, {'long_name': '100', 'short_name': '100', 'types': ['postal_code']}], 'formatted_address': 'No. 101, Section 2, Zhongxiao E Rd, Zhongzheng District, Taipei City, Taiwan 100', 'geometry': {'bounds': {'northeast': {'lat': 25.0432126, 'lng': 121.5321374}, 'southwest': {'lat': 25.0428005, 'lng': 121.5315647}}, 'location': {'lat': 25.0429237, 'lng': 121.5318709}, 'location_type': 'ROOFTOP', 'viewport': {'northeast': {'lat': 25.0443555302915, 'lng': 121.5332000302915}, 'southwest': {'lat': 25.0416575697085, 'lng': 121.5305020697085}}}, 'place_id': 'ChIJ6aKEmXypQjQR9AOtfPHRzyQ', 'types': ['premise']}]",OK
49,"[{'address_components': [{'long_name': '29', 'short_name': '29', 'types': ['street_number']}, {'long_name': 'Gongyuan Road', 'short_name': 'Gongyuan Rd', 'types': ['route']}, {'long_name': ""Bo'ai Special Zone"", 'short_name': ""Bo'ai Special Zone"", 'types': ['neighborhood', 'political']}, {'long_name': '建國里', 'short_name': '建國里', 'types': ['administrative_area_level_4', 'political']}, {'long_name': 'Zhongzheng District', 'short_name': 'Zhongzheng District', 'types': ['administrative_area_level_3', 'political']}, {'long_name': 'Taipei City', 'short_name': 'Taipei City', 'types': ['administrative_area_level_1', 'political']}, {'long_name': 'Taiwan', 'short_name': 'TW', 'types': ['country', 'political']}, {'long_name': '100', 'short_name': '100', 'types': ['postal_code']}], 'formatted_address': 'No. 29, Gongyuan Rd, Zhongzheng District, Taipei City, Taiwan 100', 'geometry': {'location': {'lat': 25.0361264, 'lng': 121.5154249}, 'location_type': 'ROOFTOP', 'viewport': {'northeast': {'lat': 25.0374753802915, 'lng': 121.5167738802915}, 'southwest': {'lat': 25.0347774197085, 'lng': 121.5140759197085}}}, 'place_id': 'ChIJreXNkJ-pQjQRtGe6_4_F_OQ', 'plus_code': {'compound_code': '2GP8+F5 Zhongzheng District, Taipei City, Taiwan', 'global_code': '7QQ32GP8+F5'}, 'types': ['street_address']}]",OK
50,"[{'address_components': [{'long_name': '35', 'short_name': '35', 'types': ['street_number']}, {'long_name': 'Ningxia Road', 'short_name': 'Ningxia Rd', 'types': ['route']}, {'long_name': '星明里', 'short_name': '星明里', 'types': ['administrative_area_level_4', 'political']}, {'long_name': 'Datong District', 'short_name': 'Datong District', 'types': ['administrative_area_level_3', 'political']}, {'long_name': 'Taipei City', 'short_name': 'Taipei City', 'types': ['administrative_area_level_1', 'political']}, {'long_name': 'Taiwan', 'short_name': 'TW', 'types': ['country', 'political']}, {'long_name': '103', 'short_name': '103', 'types': ['postal_code']}], 'formatted_address': 'No. 35, Ningxia Rd, Datong District, Taipei City, Taiwan 103', 'geometry': {'location': {'lat': 25.0563873, 'lng': 121.5157097}, 'location_type': 'ROOFTOP', 'viewport': {'northeast': {'lat': 25.0577362802915, 'lng': 121.5170586802915}, 'southwest': {'lat': 25.05503831970849, 'lng': 121.5143607197085}}}, 'place_id': 'ChIJK37432qpQjQRKpC1b5cGX5s', 'plus_code': {'compound_code': '3G48+H7 Datong District, Taipei City, Taiwan', 'global_code': '7QQ33G48+H7'}, 'types': ['street_address']}]",OK
51,"[{'address_components': [{'long_name': '151', 'short_name': '151', 'types': ['street_number']}, {'long_name': 'Taiyuan Road', 'short_name': 'Taiyuan Rd', 'types': ['route']}, {'long_name': '星明里', 'short_name': '星明里', 'types': ['administrative_area_level_4', 'political']}, {'long_name': 'Datong District', 'short_name': 'Datong District', 'types': ['administrative_area_level_3', 'political']}, {'long_name': 'Taipei City', 'short_name': 'Taipei City', 'types': ['administrative_area_level_1', 'political']}, {'long_name': 'Taiwan', 'short_name': 'TW', 'types': ['country', 'political']}, {'long_name': '103', 'short_name': '103', 'types': ['postal_code']}], 'formatted_address': 'No. 151, Taiyuan Rd, Datong District, Taipei City, Taiwan 103', 'geometry': {'location': {'lat': 25.0543695, 'lng': 121.5164603}, 'location_type': 'ROOFTOP', 'viewport': {'northeast': {'lat': 25.0557184802915, 'lng': 121.5178092802915}, 'southwest': {'lat': 25.0530205197085, 'lng': 121.5151113197085}}}, 'place_id': 'ChIJHWEHcWupQjQRcoHPWrm3pYc', 'plus_code': {'compound_code': '3G38+PH Datong District, Taipei City, Taiwan', 'global_code': '7QQ33G38+PH'}, 'types': ['street_address']}]",OK
52,"[{'address_components': [{'long_name': '239', 'short_name': '239', 'types': ['street_number']}, {'long_name': 'Section 2, Yanping North Road', 'short_name': 'Section 2, Yanping N Rd', 'types': ['route']}, {'long_name': '南芳里', 'short_name': '南芳里', 'types': ['administrative_area_level_4', 'political']}, {'long_name': 'Datong District', 'short_name': 'Datong District', 'types': ['administrative_area_level_3', 'political']}, {'long_name': 'Taipei City', 'short_name': 'Taipei City', 'types': ['administrative_area_level_1', 'political']}, {'long_name': 'Taiwan', 'short_name': 'TW', 'types': ['country', 'political']}, {'long_name': '103', 'short_name': '103', 'types': ['postal_code']}], 'formatted_address': 'No. 239, Section 2, Yanping N Rd, Datong District, Taipei City, Taiwan 103', 'geometry': {'location': {'lat': 25.0613868, 'lng': 121.5123813}, 'location_type': 'ROOFTOP', 'viewport': {'northeast': {'lat': 25.0627357802915, 'lng': 121.5137302802915}, 'southwest': {'lat': 25.0600378197085, 'lng': 121.5110323197085}}}, 'place_id': 'ChIJoYV8tT-pQjQRAN9BviZ4Rus', 'plus_code': {'compound_code': '3G66+HX Datong District, Taipei City, Taiwan', 'global_code': '7QQ33G66+HX'}, 'types': ['street_address']}]",OK
53,"[{'address_components': [{'long_name': '266', 'short_name': '266', 'types': ['street_number']}, {'long_name': 'Section 2, Yanping North Road', 'short_name': 'Section 2, Yanping N Rd', 'types': ['route']}, {'long_name': '南芳里', 'short_name': '南芳里', 'types': ['administrative_area_level_4', 'political']}, {'long_name': 'Datong District', 'short_name': 'Datong District', 'types': ['administrative_area_level_3', 'political']}, {'long_name': 'Taipei City', 'short_name': 'Taipei City', 'types': ['administrative_area_level_1', 'political']}, {'long_name': 'Taiwan', 'short_name': 'TW', 'types': ['country', 'political']}, {'long_name': '103', 'short_name': '103', 'types': ['postal_code']}], 'formatted_address': 'No. 266, Section 2, Yanping N Rd, Datong District, Taipei City, Taiwan 103', 'geometry': {'location': {'lat': 25.061297, 'lng': 121.5110848}, 'location_type': 'ROOFTOP', 'viewport': {'northeast': {'lat': 25.0626459802915, 'lng': 121.5124337802915}, 'southwest': {'lat': 25.0599480197085, 'lng': 121.5097358197085}}}, 'place_id': 'ChIJ0XCpNT6pQjQR6-11TfrwwO0', 'plus_code': {'compound_code': '3G66+GC Datong District, Taipei City, Taiwan', 'global_code': '7QQ33G66+GC'}, 'types': ['street_address']}]",OK
54,"[{'address_components': [{'long_name': '51', 'short_name': '51', 'types': ['street_number']}, {'long_name': 'Jinxi Street', 'short_name': 'Jinxi St', 'types': ['route']}, {'long_name': '民權里', 'short_name': '民權里', 'types': ['administrative_area_level_4', 'political']}, {'long_name': 'Datong District', 'short_name': 'Datong District', 'types': ['administrative_area_level_3', 'political']}, {'long_name': 'Taipei City', 'short_name': 'Taipei City', 'types': ['administrative_area_level_1', 'political']}, {'long_name': 'Taiwan', 'short_name': 'TW', 'types': ['country', 'political']}, {'long_name': '103', 'short_name': '103', 'types': ['postal_code']}], 'formatted_address': 'No. 51, Jinxi St, Datong District, Taipei City, Taiwan 103', 'geometry': {'location': {'lat': 25.0601292, 'lng': 121.5167604}, 'location_type': 'ROOFTOP', 'viewport': {'northeast': {'lat': 25.0614781802915, 'lng': 121.5181093802915}, 'southwest': {'lat': 25.0587802197085, 'lng': 121.5154114197085}}}, 'place_id': 'ChIJMVoESkCpQjQRFOopJt6qz-g', 'plus_code': {'compound_code': '3G68+3P Datong District, Taipei City, Taiwan', 'global_code': '7QQ33G68+3P'}, 'types': ['street_address']}]",OK
55,"[{'address_components': [{'long_name': '51號', 'short_name': '51號', 'types': ['street_number']}, {'long_name': 'Dalong Street', 'short_name': 'Dalong St', 'types': ['route']}, {'long_name': '蓬萊里', 'short_name': '蓬萊里', 'types': ['administrative_area_level_4', 'political']}, {'long_name': 'Datong District', 'short_name': 'Datong District', 'types': ['administrative_area_level_3', 'political']}, {'long_name': 'Taipei City', 'short_name': 'Taipei City', 'types': ['administrative_area_level_1', 'political']}, {'long_name': 'Taiwan', 'short_name': 'TW', 'types': ['country', 'political']}, {'long_name': '103', 'short_name': '103', 'types': ['postal_code']}], 'formatted_address': 'No. 51號, Dalong St, Datong District, Taipei City, Taiwan 103', 'geometry': {'location': {'lat': 25.065132, 'lng': 121.5165163}, 'location_type': 'ROOFTOP', 'viewport': {'northeast': {'lat': 25.0664809802915, 'lng': 121.5178652802915}, 'southwest': {'lat': 25.0637830197085, 'lng': 121.5151673197085}}}, 'place_id': 'ChIJQ0kTI0epQjQRdlw-uSTgUn0', 'types': ['premise']}]",OK
56,"[{'address_components': [{'long_name': '47', 'short_name': '47', 'types': ['street_number']}, {'long_name': 'Hami Street', 'short_name': 'Hami St', 'types': ['route']}, {'long_name': '保安里', 'short_name': '保安里', 'types': ['administrative_area_level_4', 'political']}, {'long_name': 'Datong District', 'short_name': 'Datong District', 'types': ['administrative_area_level_3', 'political']}, {'long_name': 'Taipei City', 'short_name': 'Taipei City', 'types': ['administrative_area_level_1', 'political']}, {'long_name': 'Taiwan', 'short_name': 'TW', 'types': ['country', 'political']}, {'long_name': '103', 'short_name': '103', 'types': ['postal_code']}], 'formatted_address': 'No. 47, Hami St, Datong District, Taipei City, Taiwan 103', 'geometry': {'location': {'lat': 25.073409, 'lng': 121.5166925}, 'location_type': 'ROOFTOP', 'viewport': {'northeast': {'lat': 25.0747579802915, 'lng': 121.5180414802915}, 'southwest': {'lat': 25.0720600197085, 'lng': 121.5153435197085}}}, 'place_id': 'ChIJl8tZn0mpQjQRk4p918yuDK8', 'plus_code': {'compound_code': '3GF8+9M Datong District, Taipei City, Taiwan', 'global_code': '7QQ33GF8+9M'}, 'types': ['street_address']}]",OK
57,"[{'address_components': [{'long_name': '97', 'short_name': '97', 'types': ['street_number']}, {'long_name': 'Changji Street', 'short_name': 'Changji St', 'types': ['route']}, {'long_name': '國慶里', 'short_name': '國慶里', 'types': ['administrative_area_level_4', 'political']}, {'long_name': 'Datong District', 'short_name': 'Datong District', 'types': ['administrative_area_level_3', 'political']}, {'long_name': 'Taipei City', 'short_name': 'Taipei City', 'types': ['administrative_area_level_1', 'political']}, {'long_name': 'Taiwan', 'short_name': 'TW', 'types': ['country', 'political']}, {'long_name': '103', 'short_name': '103', 'types': ['postal_code']}], 'formatted_address': 'No. 97, Changji St, Datong District, Taipei City, Taiwan 103', 'geometry': {'location': {'lat': 25.0660466, 'lng': 121.5124544}, 'location_type': 'ROOFTOP', 'viewport': {'northeast': {'lat': 25.0673955802915, 'lng': 121.5138033802915}, 'southwest': {'lat': 25.0646976197085, 'lng': 121.5111054197085}}}, 'place_id': 'ChIJDfS4xjipQjQRk7lZBPrmPlM', 'plus_code': {'compound_code': '3G86+CX Datong District, Taipei City, Taiwan', 'global_code': '7QQ33G86+CX'}, 'types': ['street_address']}]",OK
58,"[{'address_components': [{'long_name': '2', 'short_name': '2', 'types': ['street_number']}, {'long_name': 'Section 3, Chongqing North Road', 'short_name': 'Section 3, Chongqing N Rd', 'types': ['route']}, {'long_name': '隆和里', 'short_name': '隆和里', 'types': ['administrative_area_level_4', 'political']}, {'long_name': 'Datong District', 'short_name': 'Datong District', 'types': ['administrative_area_level_3', 'political']}, {'long_name': 'Taipei City', 'short_name': 'Taipei City', 'types': ['administrative_area_level_1', 'political']}, {'long_name': 'Taiwan', 'short_name': 'TW', 'types': ['country', 'political']}, {'long_name': '103', 'short_name': '103', 'types': ['postal_code']}], 'formatted_address': 'No. 2, Section 3, Chongqing N Rd, Datong District, Taipei City, Taiwan 103', 'geometry': {'location': {'lat': 25.0634649, 'lng': 121.5127785}, 'location_type': 'ROOFTOP', 'viewport': {'northeast': {'lat': 25.0648138802915, 'lng': 121.5141274802915}, 'southwest': {'lat': 25.0621159197085, 'lng': 121.5114295197085}}}, 'place_id': 'ChIJ0V5saT-pQjQRpQeMDpEZ8yA', 'types': ['premise']}]",OK
59,"[{'address_components': [{'long_name': '31', 'short_name': '31', 'types': ['street_number']}, {'long_name': 'Lane 125, Xizang Road', 'short_name': 'Lane 125, Xizang Rd', 'types': ['route']}, {'long_name': '新安里', 'short_name': '新安里', 'types': ['administrative_area_level_4', 'political']}, {'long_name': 'Wanhua District', 'short_name': 'Wanhua District', 'types': ['administrative_area_level_3', 'political']}, {'long_name': 'Taipei City', 'short_name': 'Taipei City', 'types': ['administrative_area_level_1', 'political']}, {'long_name': 'Taiwan', 'short_name': 'TW', 'types': ['country', 'political']}, {'long_name': '108', 'short_name': '108', 'types': ['postal_code']}], 'formatted_address': 'No. 31, Lane 125, Xizang Rd, Wanhua District, Taipei City, Taiwan 108', 'geometry': {'location': {'lat': 25.0259828, 'lng': 121.5033372}, 'location_type': 'ROOFTOP', 'viewport': {'northeast': {'lat': 25.0273317802915, 'lng': 121.5046861802915}, 'southwest': {'lat': 25.02463381970849, 'lng': 121.5019882197085}}}, 'place_id': 'ChIJL20IDbqpQjQRA9iP_zsDitM', 'plus_code': {'compound_code': '2GG3+98 Wanhua District, Taipei City, Taiwan', 'global_code': '7QQ32GG3+98'}, 'types': ['street_address']}]",OK
60,"[{'address_components': [{'long_name': '315', 'short_name': '315', 'types': ['street_number']}, {'long_name': 'Juguang Road', 'short_name': 'Juguang Rd', 'types': ['route']}, {'long_name': '雙園里', 'short_name': '雙園里', 'types': ['administrative_area_level_4', 'political']}, {'long_name': 'Wanhua District', 'short_name': 'Wanhua District', 'types': ['administrative_area_level_3', 'political']}, {'long_name': 'Taipei City', 'short_name': 'Taipei City', 'types': ['administrative_area_level_1', 'political']}, {'long_name': 'Taiwan', 'short_name': 'TW', 'types': ['country', 'political']}, {'long_name': '108', 'short_name': '108', 'types': ['postal_code']}], 'formatted_address': 'No. 315, Juguang Rd, Wanhua District, Taipei City, Taiwan 108', 'geometry': {'bounds': {'northeast': {'lat': 25.0308836, 'lng': 121.4990152}, 'southwest': {'lat': 25.0298996, 'lng': 121.4975064}}, 'location': {'lat': 25.0308183, 'lng': 121.4985878}, 'location_type': 'ROOFTOP', 'viewport': {'northeast': {'lat': 25.0317405802915, 'lng': 121.4996097802915}, 'southwest': {'lat': 25.0290426197085, 'lng': 121.4969118197085}}}, 'place_id': 'ChIJn8d56bGpQjQRdElgdFlnpEE', 'types': ['premise']}]",OK
61,"[{'address_components': [{'long_name': '195', 'short_name': '195', 'types': ['street_number']}, {'long_name': 'Dongyuan Street', 'short_name': 'Dongyuan St', 'types': ['route']}, {'long_name': '全德里', 'short_name': '全德里', 'types': ['administrative_area_level_4', 'political']}, {'long_name': 'Wanhua District', 'short_name': 'Wanhua District', 'types': ['administrative_area_level_3', 'political']}, {'long_name': 'Taipei City', 'short_name': 'Taipei City', 'types': ['administrative_area_level_1', 'political']}, {'long_name': 'Taiwan', 'short_name': 'TW', 'types': ['country', 'political']}, {'long_name': '108', 'short_name': '108', 'types': ['postal_code']}], 'formatted_address': 'No. 195, Dongyuan St, Wanhua District, Taipei City, Taiwan 108', 'geometry': {'location': {'lat': 25.023163, 'lng': 121.4978675}, 'location_type': 'ROOFTOP', 'viewport': {'northeast': {'lat': 25.0245119802915, 'lng': 121.4992164802915}, 'southwest': {'lat': 25.0218140197085, 'lng': 121.4965185197085}}}, 'place_id': 'ChIJeUFwY7apQjQRb4Kw843xwV8', 'plus_code': {'compound_code': '2FFX+74 Wanhua District, Taipei City, Taiwan', 'global_code': '7QQ32FFX+74'}, 'types': ['street_address']}]",OK
62,"[{'address_components': [{'long_name': '389', 'short_name': '389', 'types': ['street_number']}, {'long_name': 'Bangka Boulevard', 'short_name': 'Bangka Blvd', 'types': ['route']}, {'long_name': '綠堤里', 'short_name': '綠堤里', 'types': ['administrative_area_level_4', 'political']}, {'long_name': 'Wanhua District', 'short_name': 'Wanhua District', 'types': ['administrative_area_level_3', 'political']}, {'long_name': 'Taipei City', 'short_name': 'Taipei City', 'types': ['administrative_area_level_1', 'political']}, {'long_name': 'Taiwan', 'short_name': 'TW', 'types': ['country', 'political']}, {'long_name': '108', 'short_name': '108', 'types': ['postal_code']}], 'formatted_address': 'No. 389, Bangka Blvd, Wanhua District, Taipei City, Taiwan 108', 'geometry': {'location': {'lat': 25.0311567, 'lng': 121.4930584}, 'location_type': 'ROOFTOP', 'viewport': {'northeast': {'lat': 25.0325056802915, 'lng': 121.4944073802915}, 'southwest': {'lat': 25.0298077197085, 'lng': 121.4917094197085}}}, 'place_id': 'ChIJe8Tdi7KpQjQRZrPxHf-y0R0', 'plus_code': {'compound_code': '2FJV+F6 Wanhua District, Taipei City, Taiwan', 'global_code': '7QQ32FJV+F6'}, 'types': ['street_address']}]",OK
63,"[{'address_components': [{'long_name': '65', 'short_name': '65', 'types': ['street_number']}, {'long_name': 'Lane 73, Dongyuan Street', 'short_name': 'Lane 73, Dongyuan St', 'types': ['route']}, {'long_name': '日善里', 'short_name': '日善里', 'types': ['administrative_area_level_4', 'political']}, {'long_name': 'Wanhua District', 'short_name': 'Wanhua District', 'types': ['administrative_area_level_3', 'political']}, {'long_name': 'Taipei City', 'short_name': 'Taipei City', 'types': ['administrative_area_level_1', 'political']}, {'long_name': 'Taiwan', 'short_name': 'TW', 'types': ['country', 'political']}, {'long_name': '108', 'short_name': '108', 'types': ['postal_code']}], 'formatted_address': 'No. 65, Lane 73, Dongyuan St, Wanhua District, Taipei City, Taiwan 108', 'geometry': {'location': {'lat': 25.0271068, 'lng': 121.4982517}, 'location_type': 'ROOFTOP', 'viewport': {'northeast': {'lat': 25.0284557802915, 'lng': 121.4996006802915}, 'southwest': {'lat': 25.0257578197085, 'lng': 121.4969027197085}}}, 'place_id': 'ChIJcQAzOrGpQjQRvSRCYrWczPc', 'plus_code': {'compound_code': '2FGX+R8 Wanhua District, Taipei City, Taiwan', 'global_code': '7QQ32FGX+R8'}, 'types': ['street_address']}]",OK
64,"[{'address_components': [{'long_name': '346', 'short_name': '346', 'types': ['street_number']}, {'long_name': 'Wanda Road', 'short_name': 'Wanda Rd', 'types': ['route']}, {'long_name': '全德里', 'short_name': '全德里', 'types': ['administrative_area_level_4', 'political']}, {'long_name': 'Wanhua District', 'short_name': 'Wanhua District', 'types': ['administrative_area_level_3', 'political']}, {'long_name': 'Taipei City', 'short_name': 'Taipei City', 'types': ['administrative_area_level_1', 'political']}, {'long_name': 'Taiwan', 'short_name': 'TW', 'types': ['country', 'political']}, {'long_name': '108', 'short_name': '108', 'types': ['postal_code']}], 'formatted_address': 'No. 346, Wanda Rd, Wanhua District, Taipei City, Taiwan 108', 'geometry': {'location': {'lat': 25.0229287, 'lng': 121.499329}, 'location_type': 'ROOFTOP', 'viewport': {'northeast': {'lat': 25.0242776802915, 'lng': 121.5006779802915}, 'southwest': {'lat': 25.02157971970849, 'lng': 121.4979800197085}}}, 'place_id': 'ChIJAStNVrapQjQRlv5xYKZDo98', 'plus_code': {'compound_code': '2FFX+5P Wanhua District, Taipei City, Taiwan', 'global_code': '7QQ32FFX+5P'}, 'types': ['street_address']}]",OK
65,"[{'address_components': [{'long_name': '2', 'short_name': '2', 'types': ['street_number']}, {'long_name': 'Alley 42, Lane 250, Section 2, Huanhe South Road', 'short_name': 'Alley 42, Lane 250, Section 2, Huanhe S Rd', 'types': ['route']}, {'long_name': '華江里', 'short_name': '華江里', 'types': ['administrative_area_level_4', 'political']}, {'long_name': 'Wanhua District', 'short_name': 'Wanhua District', 'types': ['administrative_area_level_3', 'political']}, {'long_name': 'Taipei City', 'short_name': 'Taipei City', 'types': ['administrative_area_level_1', 'political']}, {'long_name': 'Taiwan', 'short_name': 'TW', 'types': ['country', 'political']}, {'long_name': '108', 'short_name': '108', 'types': ['postal_code']}], 'formatted_address': 'No. 2, Alley 42, Lane 250, Section 2, Huanhe S Rd, Wanhua District, Taipei City, Taiwan 108', 'geometry': {'location': {'lat': 25.0340923, 'lng': 121.4912627}, 'location_type': 'ROOFTOP', 'viewport': {'northeast': {'lat': 25.0354412802915, 'lng': 121.4926116802915}, 'southwest': {'lat': 25.0327433197085, 'lng': 121.4899137197085}}}, 'place_id': 'ChIJ25zxtFKoQjQR-rFyzeQrkKw', 'plus_code': {'compound_code': '2FMR+JG Wanhua District, Taipei City, Taiwan', 'global_code': '7QQ32FMR+JG'}, 'types': ['street_address']}]",OK
66,"[{'address_components': [{'long_name': '98', 'short_name': '98', 'types': ['street_number']}, {'long_name': 'Chengdu Road', 'short_name': 'Chengdu Rd', 'types': ['route']}, {'long_name': 'Ximen', 'short_name': 'Ximen', 'types': ['neighborhood', 'political']}, {'long_name': '西門里', 'short_name': '西門里', 'types': ['administrative_area_level_4', 'political']}, {'long_name': 'Wanhua District', 'short_name': 'Wanhua District', 'types': ['administrative_area_level_3', 'political']}, {'long_name': 'Taipei City', 'short_name': 'Taipei City', 'types': ['administrative_area_level_1', 'political']}, {'long_name': 'Taiwan', 'short_name': 'TW', 'types': ['country', 'political']}, {'long_name': '108', 'short_name': '108', 'types': ['postal_code']}], 'formatted_address': 'No. 98, Chengdu Rd, Wanhua District, Taipei City, Taiwan 108', 'geometry': {'location': {'lat': 25.0431752, 'lng': 121.5035856}, 'location_type': 'ROOFTOP', 'viewport': {'northeast': {'lat': 25.0445241802915, 'lng': 121.5049345802915}, 'southwest': {'lat': 25.0418262197085, 'lng': 121.5022366197085}}}, 'place_id': 'ChIJY3D7YgipQjQR_cVQ9RhMA28', 'plus_code': {'compound_code': '2GV3+7C Wanhua District, Taipei City, Taiwan', 'global_code': '7QQ32GV3+7C'}, 'types': ['street_address']}]",OK
67,"[{'address_components': [{'long_name': '64', 'short_name': '64', 'types': ['street_number']}, {'long_name': 'Guilin Road', 'short_name': 'Guilin Rd', 'types': ['route']}, {'long_name': '福音里', 'short_name': '福音里', 'types': ['administrative_area_level_4', 'political']}, {'long_name': 'Wanhua District', 'short_name': 'Wanhua District', 'types': ['administrative_area_level_3', 'political']}, {'long_name': 'Taipei City', 'short_name': 'Taipei City', 'types': ['administrative_area_level_1', 'political']}, {'long_name': 'Taiwan', 'short_name': 'TW', 'types': ['country', 'political']}, {'long_name': '108', 'short_name': '108', 'types': ['postal_code']}], 'formatted_address': 'No. 64, Guilin Rd, Wanhua District, Taipei City, Taiwan 108', 'geometry': {'location': {'lat': 25.0380873, 'lng': 121.5027463}, 'location_type': 'ROOFTOP', 'viewport': {'northeast': {'lat': 25.0394362802915, 'lng': 121.5040952802915}, 'southwest': {'lat': 25.03673831970849, 'lng': 121.5013973197085}}}, 'place_id': 'ChIJU8nUgaipQjQRwGQA4VmWHAo', 'plus_code': {'compound_code': '2GQ3+63 Wanhua District, Taipei City, Taiwan', 'global_code': '7QQ32GQ3+63'}, 'types': ['street_address']}]",OK
68,"[{'address_components': [{'long_name': '235', 'short_name': '235', 'types': ['street_number']}, {'long_name': 'Section 3, Heping West Road', 'short_name': 'Section 3, Heping W Rd', 'types': ['route']}, {'long_name': '青山里', 'short_name': '青山里', 'types': ['administrative_area_level_4', 'political']}, {'long_name': 'Wanhua District', 'short_name': 'Wanhua District', 'types': ['administrative_area_level_3', 'political']}, {'long_name': 'Taipei City', 'short_name': 'Taipei City', 'types': ['administrative_area_level_1', 'political']}, {'long_name': 'Taiwan', 'short_name': 'TW', 'types': ['country', 'political']}, {'long_name': '108', 'short_name': '108', 'types': ['postal_code']}], 'formatted_address': 'No. 235, Section 3, Heping W Rd, Wanhua District, Taipei City, Taiwan 108', 'geometry': {'bounds': {'northeast': {'lat': 25.0356791, 'lng': 121.495997}, 'southwest': {'lat': 25.0356304, 'lng': 121.495662}}, 'location': {'lat': 25.0356553, 'lng': 121.4958359}, 'location_type': 'ROOFTOP', 'viewport': {'northeast': {'lat': 25.0370037302915, 'lng': 121.4971784802915}, 'southwest': {'lat': 25.0343057697085, 'lng': 121.4944805197085}}}, 'place_id': 'ChIJU2bwPqypQjQR53JdWWnDATE', 'types': ['premise']}]",OK
69,"[{'address_components': [{'long_name': '66', 'short_name': '66', 'types': ['street_number']}, {'long_name': 'Section 1, Zhonghua Road', 'short_name': 'Section 1, Zhonghua Rd', 'types': ['route']}, {'long_name': '福星里', 'short_name': '福星里', 'types': ['administrative_area_level_4', 'political']}, {'long_name': 'Wanhua District', 'short_name': 'Wanhua District', 'types': ['administrative_area_level_3', 'political']}, {'long_name': 'Taipei City', 'short_name': 'Taipei City', 'types': ['administrative_area_level_1', 'political']}, {'long_name': 'Taiwan', 'short_name': 'TW', 'types': ['country', 'political']}, {'long_name': '108', 'short_name': '108', 'types': ['postal_code']}], 'formatted_address': 'No. 66, Section 1, Zhonghua Rd, Wanhua District, Taipei City, Taiwan 108', 'geometry': {'bounds': {'northeast': {'lat': 25.0472102, 'lng': 121.5089329}, 'southwest': {'lat': 25.0466057, 'lng': 121.508305}}, 'location': {'lat': 25.0469706, 'lng': 121.5086742}, 'location_type': 'ROOFTOP', 'viewport': {'northeast': {'lat': 25.0482569302915, 'lng': 121.5099679302915}, 'southwest': {'lat': 25.0455589697085, 'lng': 121.5072699697085}}}, 'place_id': 'ChIJp6dXKAypQjQRhD_4K9hFzpY', 'types': ['premise']}]",OK
70,"[{'address_components': [{'long_name': '108', 'short_name': '108', 'types': ['street_number']}, {'long_name': 'Jingwen Street', 'short_name': 'Jingwen St', 'types': ['route']}, {'long_name': '景行里', 'short_name': '景行里', 'types': ['administrative_area_level_4', 'political']}, {'long_name': 'Wenshan District', 'short_name': 'Wenshan District', 'types': ['administrative_area_level_3', 'political']}, {'long_name': 'Taipei City', 'short_name': 'Taipei City', 'types': ['administrative_area_level_1', 'political']}, {'long_name': 'Taiwan', 'short_name': 'TW', 'types': ['country', 'political']}, {'long_name': '116', 'short_name': '116', 'types': ['postal_code']}], 'formatted_address': 'No. 108, Jingwen St, Wenshan District, Taipei City, Taiwan 116', 'geometry': {'bounds': {'northeast': {'lat': 24.9898044, 'lng': 121.5406922}, 'southwest': {'lat': 24.989085, 'lng': 121.5397983}}, 'location': {'lat': 24.9896433, 'lng': 121.5398994}, 'location_type': 'ROOFTOP', 'viewport': {'northeast': {'lat': 24.9907936802915, 'lng': 121.5415942302915}, 'southwest': {'lat': 24.9880957197085, 'lng': 121.5388962697085}}}, 'place_id': 'ChIJr2JmKf4BaDQRgcZculXfWD8', 'types': ['premise']}]",OK
71,"[{'address_components': [{'long_name': '1', 'short_name': '1', 'types': ['street_number']}, {'long_name': 'Section 2, Xinglong Road', 'short_name': 'Section 2, Xinglong Rd', 'types': ['route']}, {'long_name': '興豐里', 'short_name': '興豐里', 'types': ['administrative_area_level_4', 'political']}, {'long_name': 'Wenshan District', 'short_name': 'Wenshan District', 'types': ['administrative_area_level_3', 'political']}, {'long_name': 'Taipei City', 'short_name': 'Taipei City', 'types': ['administrative_area_level_1', 'political']}, {'long_name': 'Taiwan', 'short_name': 'TW', 'types': ['country', 'political']}, {'long_name': '116', 'short_name': '116', 'types': ['postal_code']}], 'formatted_address': 'No. 1, Section 2, Xinglong Rd, Wenshan District, Taipei City, Taiwan 116', 'geometry': {'location': {'lat': 24.9988076, 'lng': 121.5451412}, 'location_type': 'ROOFTOP', 'viewport': {'northeast': {'lat': 25.0001565802915, 'lng': 121.5464901802915}, 'southwest': {'lat': 24.9974586197085, 'lng': 121.5437922197085}}}, 'place_id': 'ChIJW7Ps0wSqQjQRv-v-MGTY4-M', 'plus_code': {'compound_code': 'XGXW+G3 Wenshan District, Taipei City, Taiwan', 'global_code': '7QP3XGXW+G3'}, 'types': ['street_address']}]",OK
72,"[{'address_components': [{'long_name': '235', 'short_name': '235', 'types': ['street_number']}, {'long_name': 'Section 2, Xinglong Road', 'short_name': 'Section 2, Xinglong Rd', 'types': ['route']}, {'long_name': '興邦里', 'short_name': '興邦里', 'types': ['administrative_area_level_4', 'political']}, {'long_name': 'Wenshan District', 'short_name': 'Wenshan District', 'types': ['administrative_area_level_3', 'political']}, {'long_name': 'Taipei City', 'short_name': 'Taipei City', 'types': ['administrative_area_level_1', 'political']}, {'long_name': 'Taiwan', 'short_name': 'TW', 'types': ['country', 'political']}, {'long_name': '116', 'short_name': '116', 'types': ['postal_code']}], 'formatted_address': 'No. 235, Section 2, Xinglong Rd, Wenshan District, Taipei City, Taiwan 116', 'geometry': {'bounds': {'northeast': {'lat': 25.0019437, 'lng': 121.5508654}, 'southwest': {'lat': 25.0015508, 'lng': 121.5506243}}, 'location': {'lat': 25.0017407, 'lng': 121.5507594}, 'location_type': 'ROOFTOP', 'viewport': {'northeast': {'lat': 25.0030962302915, 'lng': 121.5520938302915}, 'southwest': {'lat': 25.0003982697085, 'lng': 121.5493958697085}}}, 'place_id': 'ChIJ_TqC3RCqQjQRZ5PjGH6GQLQ', 'types': ['premise']}]",OK
73,"[{'address_components': [{'long_name': '225', 'short_name': '225', 'types': ['street_number']}, {'long_name': 'Jingfu Street', 'short_name': 'Jingfu St', 'types': ['route']}, {'long_name': '景慶里', 'short_name': '景慶里', 'types': ['administrative_area_level_4', 'political']}, {'long_name': 'Wenshan District', 'short_name': 'Wenshan District', 'types': ['administrative_area_level_3', 'political']}, {'long_name': 'Taipei City', 'short_name': 'Taipei City', 'types': ['administrative_area_level_1', 'political']}, {'long_name': 'Taiwan', 'short_name': 'TW', 'types': ['country', 'political']}, {'long_name': '116', 'short_name': '116', 'types': ['postal_code']}], 'formatted_address': 'No. 225, Jingfu St, Wenshan District, Taipei City, Taiwan 116', 'geometry': {'location': {'lat': 24.99413, 'lng': 121.5387574}, 'location_type': 'ROOFTOP', 'viewport': {'northeast': {'lat': 24.9954789802915, 'lng': 121.5401063802915}, 'southwest': {'lat': 24.9927810197085, 'lng': 121.5374084197085}}}, 'place_id': 'ChIJZSEvlAGqQjQR4K08qGX1zlY', 'plus_code': {'compound_code': 'XGVQ+MG Wenshan District, Taipei City, Taiwan', 'global_code': '7QP3XGVQ+MG'}, 'types': ['street_address']}]",OK
74,"[{'address_components': [{'long_name': '2', 'short_name': '2', 'types': ['street_number']}, {'long_name': 'Fuxing Road', 'short_name': 'Fuxing Rd', 'types': ['route']}, {'long_name': '興旺里', 'short_name': '興旺里', 'types': ['administrative_area_level_4', 'political']}, {'long_name': 'Wenshan District', 'short_name': 'Wenshan District', 'types': ['administrative_area_level_3', 'political']}, {'long_name': 'Taipei City', 'short_name': 'Taipei City', 'types': ['administrative_area_level_1', 'political']}, {'long_name': 'Taiwan', 'short_name': 'TW', 'types': ['country', 'political']}, {'long_name': '116', 'short_name': '116', 'types': ['postal_code']}], 'formatted_address': 'No. 2, Fuxing Rd, Wenshan District, Taipei City, Taiwan 116', 'geometry': {'location': {'lat': 25.0024803, 'lng': 121.5519312}, 'location_type': 'ROOFTOP', 'viewport': {'northeast': {'lat': 25.00382928029151, 'lng': 121.5532801802915}, 'southwest': {'lat': 25.0011313197085, 'lng': 121.5505822197085}}}, 'place_id': 'ChIJGYIJLhGqQjQRkZmmF4FH08o', 'plus_code': {'compound_code': '2H22+XQ Wenshan District, Taipei City, Taiwan', 'global_code': '7QQ32H22+XQ'}, 'types': ['street_address']}]",OK
75,"[{'address_components': [{'long_name': '5', 'short_name': '5', 'types': ['street_number']}, {'long_name': 'Lane 21, Jingfu Street', 'short_name': 'Lane 21, Jingfu St', 'types': ['route']}, {'long_name': '景仁里', 'short_name': '景仁里', 'types': ['administrative_area_level_4', 'political']}, {'long_name': 'Wenshan District', 'short_name': 'Wenshan District', 'types': ['administrative_area_level_3', 'political']}, {'long_name': 'Taipei City', 'short_name': 'Taipei City', 'types': ['administrative_area_level_1', 'political']}, {'long_name': 'Taiwan', 'short_name': 'TW', 'types': ['country', 'political']}, {'long_name': '116', 'short_name': '116', 'types': ['postal_code']}], 'formatted_address': 'No. 5, Lane 21, Jingfu St, Wenshan District, Taipei City, Taiwan 116', 'geometry': {'location': {'lat': 24.9986519, 'lng': 121.5389127}, 'location_type': 'ROOFTOP', 'viewport': {'northeast': {'lat': 25.0000008802915, 'lng': 121.5402616802915}, 'southwest': {'lat': 24.9973029197085, 'lng': 121.5375637197085}}}, 'place_id': 'ChIJZdZa7gKqQjQRQcZNhWrZZu0', 'plus_code': {'compound_code': 'XGXQ+FH Wenshan District, Taipei City, Taiwan', 'global_code': '7QP3XGXQ+FH'}, 'types': ['street_address']}]",OK
76,"[{'address_components': [{'long_name': '21', 'short_name': '21', 'types': ['street_number']}, {'long_name': 'Lane 150, Jinghua Street', 'short_name': 'Lane 150, Jinghua St', 'types': ['route']}, {'long_name': '興安里', 'short_name': '興安里', 'types': ['administrative_area_level_4', 'political']}, {'long_name': 'Wenshan District', 'short_name': 'Wenshan District', 'types': ['administrative_area_level_3', 'political']}, {'long_name': 'Taipei City', 'short_name': 'Taipei City', 'types': ['administrative_area_level_1', 'political']}, {'long_name': 'Taiwan', 'short_name': 'TW', 'types': ['country', 'political']}, {'long_name': '116', 'short_name': '116', 'types': ['postal_code']}], 'formatted_address': 'No. 21, Lane 150, Jinghua St, Wenshan District, Taipei City, Taiwan 116', 'geometry': {'bounds': {'northeast': {'lat': 24.9968816, 'lng': 121.5493269}, 'southwest': {'lat': 24.9955281, 'lng': 121.5481299}}, 'location': {'lat': 24.9957415, 'lng': 121.5490424}, 'location_type': 'ROOFTOP', 'viewport': {'northeast': {'lat': 24.9975538302915, 'lng': 121.5500773802915}, 'southwest': {'lat': 24.9948558697085, 'lng': 121.5473794197085}}}, 'place_id': 'ChIJpzhXiA-qQjQRiury_9Ln2gU', 'types': ['premise']}]",OK
77,"[{'address_components': [{'long_name': '191', 'short_name': '191', 'types': ['street_number']}, {'long_name': 'Section 3, Muzha Road', 'short_name': 'Section 3, Muzha Rd', 'types': ['route']}, {'long_name': 'Muzha', 'short_name': 'Muzha', 'types': ['neighborhood', 'political']}, {'long_name': '木柵里', 'short_name': '木柵里', 'types': ['administrative_area_level_4', 'political']}, {'long_name': 'Wenshan District', 'short_name': 'Wenshan District', 'types': ['administrative_area_level_3', 'political']}, {'long_name': 'Taipei City', 'short_name': 'Taipei City', 'types': ['administrative_area_level_1', 'political']}, {'long_name': 'Taiwan', 'short_name': 'TW', 'types': ['country', 'political']}, {'long_name': '116', 'short_name': '116', 'types': ['postal_code']}], 'formatted_address': 'No. 191, Section 3, Muzha Rd, Wenshan District, Taipei City, Taiwan 116', 'geometry': {'location': {'lat': 24.9902695, 'lng': 121.5701489}, 'location_type': 'ROOFTOP', 'viewport': {'northeast': {'lat': 24.9916184802915, 'lng': 121.5714978802915}, 'southwest': {'lat': 24.9889205197085, 'lng': 121.5687999197085}}}, 'place_id': 'ChIJuwLni3CqQjQR9JrEHG7B1RM', 'plus_code': {'compound_code': 'XHRC+43 Wenshan District, Taipei City, Taiwan', 'global_code': '7QP3XHRC+43'}, 'types': ['street_address']}]",OK
78,"[{'address_components': [{'long_name': '3-1', 'short_name': '3-1', 'types': ['street_number']}, {'long_name': 'Muzha Road, Section 1', 'short_name': 'Muzha Road, Section 1', 'types': ['route']}, {'long_name': '試院里', 'short_name': '試院里', 'types': ['administrative_area_level_4', 'political']}, {'long_name': 'Wenshan District', 'short_name': 'Wenshan District', 'types': ['administrative_area_level_3', 'political']}, {'long_name': 'Taipei City', 'short_name': 'Taipei City', 'types': ['administrative_area_level_1', 'political']}, {'long_name': 'Taiwan', 'short_name': 'TW', 'types': ['country', 'political']}, {'long_name': '116', 'short_name': '116', 'types': ['postal_code']}], 'formatted_address': 'No. 3-1, Muzha Road, Section 1, Wenshan District, Taipei City, Taiwan 116', 'geometry': {'location': {'lat': 24.98859, 'lng': 121.542632}, 'location_type': 'ROOFTOP', 'viewport': {'northeast': {'lat': 24.9899389802915, 'lng': 121.5439809802915}, 'southwest': {'lat': 24.9872410197085, 'lng': 121.5412830197085}}}, 'place_id': 'ChIJTZxtB_4BaDQRUiM3PI18TAo', 'plus_code': {'compound_code': 'XGQV+C3 Wenshan District, Taipei City, Taiwan', 'global_code': '7QP3XGQV+C3'}, 'types': ['street_address']}]",OK
79,"[{'address_components': [{'long_name': '4', 'short_name': '4', 'types': ['street_number']}, {'long_name': 'Section 1, Zhongshun Street', 'short_name': 'Section 1, Zhongshun St', 'types': ['route']}, {'long_name': 'Muzha', 'short_name': 'Muzha', 'types': ['neighborhood', 'political']}, {'long_name': '樟林里', 'short_name': '樟林里', 'types': ['administrative_area_level_4', 'political']}, {'long_name': 'Wenshan District', 'short_name': 'Wenshan District', 'types': ['administrative_area_level_3', 'political']}, {'long_name': 'Taipei City', 'short_name': 'Taipei City', 'types': ['administrative_area_level_1', 'political']}, {'long_name': 'Taiwan', 'short_name': 'TW', 'types': ['country', 'political']}, {'long_name': '116', 'short_name': '116', 'types': ['postal_code']}], 'formatted_address': 'No. 4, Section 1, Zhongshun St, Wenshan District, Taipei City, Taiwan 116', 'geometry': {'location': {'lat': 24.9836274, 'lng': 121.5575466}, 'location_type': 'ROOFTOP', 'viewport': {'northeast': {'lat': 24.9849763802915, 'lng': 121.5588955802915}, 'southwest': {'lat': 24.9822784197085, 'lng': 121.5561976197085}}}, 'place_id': 'ChIJkUpwT-ABaDQRjGe7rIZDy7A', 'plus_code': {'compound_code': 'XHM5+F2 Wenshan District, Taipei City, Taiwan', 'global_code': '7QP3XHM5+F2'}, 'types': ['street_address']}]",OK
80,"[{'address_components': [{'long_name': '14-1', 'short_name': '14-1', 'types': ['street_number']}, {'long_name': 'Lane 159, Section 4, Muzha Road', 'short_name': 'Lane 159, Section 4, Muzha Rd', 'types': ['route']}, {'long_name': 'Muzha', 'short_name': 'Muzha', 'types': ['neighborhood', 'political']}, {'long_name': 'Wenshan District', 'short_name': 'Wenshan District', 'types': ['administrative_area_level_3', 'political']}, {'long_name': 'Taipei City', 'short_name': 'Taipei City', 'types': ['administrative_area_level_1', 'political']}, {'long_name': 'Taiwan', 'short_name': 'TW', 'types': ['country', 'political']}, {'long_name': '116', 'short_name': '116', 'types': ['postal_code']}], 'formatted_address': 'No. 14-1, Lane 159, Section 4, Muzha Rd, Wenshan District, Taipei City, Taiwan 116', 'geometry': {'bounds': {'northeast': {'lat': 25.0018288, 'lng': 121.5758054}, 'southwest': {'lat': 25.0017627, 'lng': 121.5756923}}, 'location': {'lat': 25.001798, 'lng': 121.5757422}, 'location_type': 'ROOFTOP', 'viewport': {'northeast': {'lat': 25.0031447302915, 'lng': 121.5770978302915}, 'southwest': {'lat': 25.0004467697085, 'lng': 121.5743998697085}}}, 'place_id': 'ChIJi54tQ2eqQjQRUSOJjwDdRmU', 'types': ['premise']}]",OK
81,"[{'address_components': [{'long_name': '5-2', 'short_name': '5-2', 'types': ['street_number']}, {'long_name': 'Lane 38, Section 3, Zhinan Road', 'short_name': 'Lane 38, Section 3, Zhinan Rd', 'types': ['route']}, {'long_name': 'Muzha', 'short_name': 'Muzha', 'types': ['neighborhood', 'political']}, {'long_name': '指南里', 'short_name': '指南里', 'types': ['administrative_area_level_4', 'political']}, {'long_name': 'Wenshan District', 'short_name': 'Wenshan District', 'types': ['administrative_area_level_3', 'political']}, {'long_name': 'Taipei City', 'short_name': 'Taipei City', 'types': ['administrative_area_level_1', 'political']}, {'long_name': 'Taiwan', 'short_name': 'TW', 'types': ['country', 'political']}, {'long_name': '116', 'short_name': '116', 'types': ['postal_code']}], 'formatted_address': 'No. 5-2, Lane 38, Section 3, Zhinan Rd, Wenshan District, Taipei City, Taiwan 116', 'geometry': {'location': {'lat': 24.9763942, 'lng': 121.5836353}, 'location_type': 'ROOFTOP', 'viewport': {'northeast': {'lat': 24.9777431802915, 'lng': 121.5849842802915}, 'southwest': {'lat': 24.97504521970849, 'lng': 121.5822863197085}}}, 'place_id': 'ChIJwSMiJCsAaDQRso0n_Hto2I8', 'plus_code': {'compound_code': 'XHGM+HF Wenshan District, Taipei City, Taiwan', 'global_code': '7QP3XHGM+HF'}, 'types': ['street_address']}]",OK
82,"[{'address_components': [{'long_name': '138', 'short_name': '138', 'types': ['street_number']}, {'long_name': 'Section 2, Muzha Road', 'short_name': 'Section 2, Muzha Rd', 'types': ['route']}, {'long_name': 'Muzha', 'short_name': 'Muzha', 'types': ['neighborhood', 'political']}, {'long_name': '明興里', 'short_name': '明興里', 'types': ['administrative_area_level_4', 'political']}, {'long_name': 'Wenshan District', 'short_name': 'Wenshan District', 'types': ['administrative_area_level_3', 'political']},